{"api_number": "3500320018", "well_name": "BLACKLEDGE", "latitude": 36.820229, "longitude": -98.237534, "state": "Oklahoma", "county": "ALFALFA", "operator_name": "HILL RESOURCES INC", "well_type": "GAS", "well_status": "OR", "source": "Oklahoma Corporation Commission"}
{"api_number": "3500320049", "well_name": "GINDER", "latitude": 36.814917, "longitude": -98.275188, "state": "Oklahoma", "county": "ALFALFA", "operator_name": "HILL RESOURCES INC", "well_type": "GAS", "well_status": "OR", "source": "Oklahoma Corporation Commission"}
{"api_number": "3500320137", "well_name": "JANTZEN", "latitude": 36.490455, "longitude": -98.209615, "state": "Oklahoma", "county": "ALFALFA", "operator_name": "RAW CRUDE OIL & GAS, L.L.C.", "well_type": "OIL", "well_status": "OR", "source": "Oklahoma Corporation Commission"}
{"api_number": "3500320153", "well_name": "BAKER", "latitude": 36.619598, "longitude": -98.524861, "state": "Oklahoma", "county": "ALFALFA", "operator_name": "RAW CRUDE OIL & GAS, L.L.C.", "well_type": "GAS", "well_status": "OR", "source": "Oklahoma Corporation Commission"}
{"api_number": "3500320453", "well_name": "SCHNEIDER", "latitude": 36.493109, "longitude": -98.183869, "state": "Oklahoma", "county": "ALFALFA", "operator_name": "RAW CRUDE OIL & GAS, L.L.C.", "well_type": "OIL", "well_status": "OR", "source": "Oklahoma Corporation Commission"}
{"api_number": "3500320507", "well_name": "WRIGHT ETAL", "latitude": 36.476059, "longitude": -98.236082, "state": "Oklahoma", "county": "ALFALFA", "operator_name": "RAW CRUDE OIL & GAS, L.L.C.", "well_type": "OIL", "well_status": "OR", "source": "Oklahoma Corporation Commission"}
{"api_number": "3500320546", "well_name": "LESLIE", "latitude": 36.617482, "longitude": -98.515482, "state": "Oklahoma", "county": "ALFALFA", "operator_name": "RAW CRUDE OIL & GAS, L.L.C.", "well_type": "GAS", "well_status": "OR", "source": "Oklahoma Corporation Commission"}
{"api_number": "3500320606", "well_name": "ROSE NEWBY", "latitude": 36.670161, "longitude": -98.34667, "state": "Oklahoma", "county": "ALFALFA", "operator_name": "RAW CRUDE OIL & GAS, L.L.C.", "well_type": "GAS", "well_status": "OR", "source": "Oklahoma Corporation Commission"}
{"api_number": "3500320640", "well_name": "SKINNER-BARR", "latitude": 36.802454, "longitude": -98.42103, "state": "Oklahoma", "county": "ALFALFA", "operator_name": "RAW CRUDE OIL & GAS, L.L.C.", "well_type": "GAS", "well_status": "OR", "source": "Oklahoma Corporation Commission"}
{"api_number": "3500320758", "well_name": "BURRIGHT", "latitude": 36.465015, "longitude": -98.3524, "state": "Oklahoma", "county": "ALFALFA", "operator_name": "RAW CRUDE OIL & GAS, L.L.C.", "well_type": "OIL", "well_status": "OR", "source": "Oklahoma Corporation Commission"}
{"api_number": "3500320846", "well_name": "VOOHREES", "latitude": 36.469594, "longitude": -98.255155, "state": "Oklahoma", "county": "ALFALFA", "operator_name": "RAW CRUDE OIL & GAS, L.L.C.", "well_type": "OIL", "well_status": "OR", "source": "Oklahoma Corporation Commission"}
{"api_number": "3500321020", "well_name": "DIEL", "latitude": 36.800653, "longitude": -98.40977, "state": "Oklahoma", "county": "ALFALFA", "operator_name": "RAW CRUDE OIL & GAS, L.L.C.", "well_type": "GAS", "well_status": "OR", "source": "Oklahoma Corporation Commission"}
{"api_number": "3500321176", "well_name": "STEFFEN", "latitude": 36.889073, "longitude": -98.120809, "state": "Oklahoma", "county": "ALFALFA", "operator_name": "TATRO TOMMY", "well_type": "GAS", "well_status": "OR", "source": "Oklahoma Corporation Commission"}
{"api_number": "3500321192", "well_name": "N.CARMEN REDFORK U (ZOA #1)", "latitude": 36.598473, "longitude": -98.48521, "state": "Oklahoma", "county": "ALFALFA", "operator_name": "RAW CRUDE OIL & GAS, L.L.C.", "well_type": "OIL", "well_status": "OR", "source": "Oklahoma Corporation Commission"}
{"api_number": "3500321354", "well_name": "BUCKLES", "latitude": 36.773348, "longitude": -98.51791, "state": "Oklahoma", "county": "ALFALFA", "operator_name": "TESSERA ENERGY LLC", "well_type": "GAS", "well_status": "OR", "source": "Oklahoma Corporation Commission"}
{"api_number": "3500321424", "well_name": "FRECH", "latitude": 36.541328, "longitude": -98.415196, "state": "Oklahoma", "county": "ALFALFA", "operator_name": "TESSERA ENERGY LLC", "well_type": "GAS", "well_status": "OR", "source": "Oklahoma Corporation Commission"}
{"api_number": "3500321443", "well_name": "CASTLE-TUCKER", "latitude": 36.809475, "longitude": -98.130279, "state": "Oklahoma", "county": "ALFALFA", "operator_name": "RAW CRUDE OIL & GAS, L.L.C.", "well_type": "GAS", "well_status": "OR", "source": "Oklahoma Corporation Commission"}
{"api_number": "3500321653", "well_name": "GOEKEN", "latitude": 36.807891, "longitude": -98.42779, "state": "Oklahoma", "county": "ALFALFA", "operator_name": "RAW CRUDE OIL & GAS, L.L.C.", "well_type": "GAS", "well_status": "OR", "source": "Oklahoma Corporation Commission"}
{"api_number": "3500321703", "well_name": "SCHNEIDER", "latitude": 36.496942, "longitude": -98.181844, "state": "Oklahoma", "county": "ALFALFA", "operator_name": "RAW CRUDE OIL & GAS, L.L.C.", "well_type": "OIL", "well_status": "OR", "source": "Oklahoma Corporation Commission"}
{"api_number": "3500330004", "well_name": "MARY L ENT", "latitude": 36.472452, "longitude": -98.303011, "state": "Oklahoma", "county": "ALFALFA", "operator_name": "RAW CRUDE OIL & GAS, L.L.C.", "well_type": "OIL", "well_status": "OR", "source": "Oklahoma Corporation Commission"}
{"api_number": "3500330077", "well_name": "H H DEWITT", "latitude": 36.486842, "longitude": -98.312308, "state": "Oklahoma", "county": "ALFALFA", "operator_name": "RAW CRUDE OIL & GAS, L.L.C.", "well_type": "OIL", "well_status": "OR", "source": "Oklahoma Corporation Commission"}
{"api_number": "3500700033", "well_name": "ALBERT B    (MIKE ALBERT #1)", "latitude": 36.893174, "longitude": -100.2515, "state": "Oklahoma", "county": "BEAVER", "operator_name": "EXCELSIOR EXPLORATION CORPORATION", "well_type": "TM", "well_status": "OR", "source": "Oklahoma Corporation Commission"}
{"api_number": "3500700287", "well_name": "WEST ELMWOOD (CORNELL UNIT 1)", "latitude": 36.607033, "longitude": -100.621, "state": "Oklahoma", "county": "BEAVER", "operator_name": "EXCELSIOR EXPLORATION CORPORATION", "well_type": "GAS", "well_status": "OR", "source": "Oklahoma Corporation Commission"}
{"api_number": "3500700349", "well_name": "W.ELMWOOD UNIT(CRAMER STATE#1)", "latitude": 36.596168, "longitude": -100.60579, "state": "Oklahoma", "county": "BEAVER", "operator_name": "EXCELSIOR EXPLORATION CORPORATION", "well_type": "GAS", "well_status": "OR", "source": "Oklahoma Corporation Commission"}
{"api_number": "3500700360", "well_name": "WEST ELMWOOD(OLLIE CATES#1)", "latitude": 36.581683, "longitude": -100.6074, "state": "Oklahoma", "county": "BEAVER", "operator_name": "EXCELSIOR EXPLORATION CORPORATION", "well_type": "OIL", "well_status": "OR", "source": "Oklahoma Corporation Commission"}
{"api_number": "3500720102", "well_name": "MILLER  AA", "latitude": 36.686037, "longitude": -100.4711, "state": "Oklahoma", "county": "BEAVER", "operator_name": "RAW CRUDE OIL & GAS, L.L.C.", "well_type": "GAS", "well_status": "OR", "source": "Oklahoma Corporation Commission"}
{"api_number": "3500720115", "well_name": "W.ELMWOOD UNIT(CUSTER #2)", "latitude": 36.588906, "longitude": -100.6187, "state": "Oklahoma", "county": "BEAVER", "operator_name": "EXCELSIOR EXPLORATION CORPORATION", "well_type": "OIL", "well_status": "OR", "source": "Oklahoma Corporation Commission"}
{"api_number": "3500720229", "well_name": "W. ELMWOOD UNIT(CUSTER#3)", "latitude": 36.587999, "longitude": -100.6243, "state": "Oklahoma", "county": "BEAVER", "operator_name": "EXCELSIOR EXPLORATION CORPORATION", "well_type": "OIL", "well_status": "OR", "source": "Oklahoma Corporation Commission"}
{"api_number": "3500720283", "well_name": "CLEO-B", "latitude": 36.78709, "longitude": -100.8868, "state": "Oklahoma", "county": "BEAVER", "operator_name": "RAW CRUDE OIL & GAS, L.L.C.", "well_type": "GAS", "well_status": "OR", "source": "Oklahoma Corporation Commission"}
{"api_number": "3500720979", "well_name": "W. ELMWOOD UNIT WSW  (502)", "latitude": 36.59327, "longitude": -100.60447, "state": "Oklahoma", "county": "BEAVER", "operator_name": "EXCELSIOR EXPLORATION CORPORATION", "well_type": "WSW", "well_status": "OR", "source": "Oklahoma Corporation Commission"}
{"api_number": "3500721146", "well_name": "BERKEY", "latitude": 36.86413, "longitude": -100.024065, "state": "Oklahoma", "county": "BEAVER", "operator_name": "CIMARRON ENERGY LLC", "well_type": "GAS", "well_status": "OR", "source": "Oklahoma Corporation Commission"}
{"api_number": "3500721396", "well_name": "ANGLETON", "latitude": 36.888548, "longitude": -100.580649, "state": "Oklahoma", "county": "BEAVER", "operator_name": "OIL FIELD PRODUCTION INC", "well_type": "GAS", "well_status": "OR", "source": "Oklahoma Corporation Commission"}
{"api_number": "3500721440", "well_name": "DICKEY", "latitude": 36.975033, "longitude": -100.833, "state": "Oklahoma", "county": "BEAVER", "operator_name": "OIL FIELD PRODUCTION INC", "well_type": "GAS", "well_status": "OR", "source": "Oklahoma Corporation Commission"}
{"api_number": "3500721581", "well_name": "OLMSTEAD", "latitude": 36.866606, "longitude": -100.1104, "state": "Oklahoma", "county": "BEAVER", "operator_name": "OIL FIELD PRODUCTION INC", "well_type": "GAS", "well_status": "OR", "source": "Oklahoma Corporation Commission"}
{"api_number": "3500721686", "well_name": "SMYRES", "latitude": 36.894493, "longitude": -100.7901, "state": "Oklahoma", "county": "BEAVER", "operator_name": "OIL FIELD PRODUCTION INC", "well_type": "GAS", "well_status": "OR", "source": "Oklahoma Corporation Commission"}
{"api_number": "3500721854", "well_name": "SMITH G", "latitude": 36.962144, "longitude": -100.8781, "state": "Oklahoma", "county": "BEAVER", "operator_name": "R & A MOORE INC", "well_type": "GAS", "well_status": "OR", "source": "Oklahoma Corporation Commission"}
{"api_number": "3500722119", "well_name": "MAHANAY", "latitude": 36.598128, "longitude": -100.4655, "state": "Oklahoma", "county": "BEAVER", "operator_name": "OIL FIELD PRODUCTION INC", "well_type": "OIL", "well_status": "OR", "source": "Oklahoma Corporation Commission"}
{"api_number": "3500722243", "well_name": "PLETT", "latitude": 36.924401, "longitude": -100.7878, "state": "Oklahoma", "county": "BEAVER", "operator_name": "OIL FIELD PRODUCTION INC", "well_type": "GAS", "well_status": "OR", "source": "Oklahoma Corporation Commission"}
{"api_number": "3500722341", "well_name": "WEST ELMWOOD UNIT\"B\"(CATES#1-9", "latitude": 36.560862, "longitude": -100.595, "state": "Oklahoma", "county": "BEAVER", "operator_name": "EXCELSIOR EXPLORATION CORPORATION", "well_type": "OIL", "well_status": "OR", "source": "Oklahoma Corporation Commission"}
{"api_number": "3500722358", "well_name": "CHESTER", "latitude": 36.756127, "longitude": -100.9341, "state": "Oklahoma", "county": "BEAVER", "operator_name": "R & A MOORE INC", "well_type": "GAS", "well_status": "OR", "source": "Oklahoma Corporation Commission"}
{"api_number": "3500722473", "well_name": "W. ELMWOOD UNIT \"B\"", "latitude": 36.565823, "longitude": -100.5979, "state": "Oklahoma", "county": "BEAVER", "operator_name": "EXCELSIOR EXPLORATION CORPORATION", "well_type": "OIL", "well_status": "OR", "source": "Oklahoma Corporation Commission"}
{"api_number": "3500722489", "well_name": "WEST ELMWOOD U\"B\"(CUSTER#1-16)", "latitude": 36.556332, "longitude": -100.5894, "state": "Oklahoma", "county": "BEAVER", "operator_name": "EXCELSIOR EXPLORATION CORPORATION", "well_type": "OIL", "well_status": "OR", "source": "Oklahoma Corporation Commission"}
{"api_number": "3500722519", "well_name": "WEST ELMWOOD UNIT(CATES #1-16)", "latitude": 36.555426, "longitude": -100.586, "state": "Oklahoma", "county": "BEAVER", "operator_name": "EXCELSIOR EXPLORATION CORPORATION", "well_type": "OIL", "well_status": "OR", "source": "Oklahoma Corporation Commission"}
{"api_number": "3500722574", "well_name": "GREGG /A/", "latitude": 36.795449, "longitude": -100.6705, "state": "Oklahoma", "county": "BEAVER", "operator_name": "R & A MOORE INC", "well_type": "GAS", "well_status": "OR", "source": "Oklahoma Corporation Commission"}
{"api_number": "3500722777", "well_name": "REEVES", "latitude": 36.556441, "longitude": -100.4362, "state": "Oklahoma", "county": "BEAVER", "operator_name": "OIL FIELD PRODUCTION INC", "well_type": "GAS", "well_status": "OR", "source": "Oklahoma Corporation Commission"}
{"api_number": "3500723124", "well_name": "JETT", "latitude": 36.5598, "longitude": -100.1794, "state": "Oklahoma", "county": "BEAVER", "operator_name": "R & A MOORE INC", "well_type": "GAS", "well_status": "OR", "source": "Oklahoma Corporation Commission"}
{"api_number": "3500723324", "well_name": "BERGEN TRUST", "latitude": 36.671853, "longitude": -100.7967, "state": "Oklahoma", "county": "BEAVER", "operator_name": "R & A MOORE INC", "well_type": "GAS", "well_status": "OR", "source": "Oklahoma Corporation Commission"}
{"api_number": "3500723540", "well_name": "TREGELLAS", "latitude": 36.569379, "longitude": -100.817, "state": "Oklahoma", "county": "BEAVER", "operator_name": "RAW CRUDE OIL & GAS, L.L.C.", "well_type": "GAS", "well_status": "OR", "source": "Oklahoma Corporation Commission"}
{"api_number": "3500724077", "well_name": "JERRY", "latitude": 36.843603, "longitude": -100.8046, "state": "Oklahoma", "county": "BEAVER", "operator_name": "OIL FIELD PRODUCTION INC", "well_type": "OIL", "well_status": "OR", "source": "Oklahoma Corporation Commission"}
{"api_number": "3500724132", "well_name": "LONGCOR", "latitude": 36.649475, "longitude": -100.48097, "state": "Oklahoma", "county": "BEAVER", "operator_name": "4 OF US RESOURCES LLC", "well_type": "GAS", "well_status": "OR", "source": "Oklahoma Corporation Commission"}
{"api_number": "3500724146", "well_name": "KIOWA CREEK", "latitude": 36.72834, "longitude": -100.1557, "state": "Oklahoma", "county": "BEAVER", "operator_name": "4 OF US RESOURCES LLC", "well_type": "GAS", "well_status": "OR", "source": "Oklahoma Corporation Commission"}
{"api_number": "3500724152", "well_name": "BENNETT", "latitude": 36.764901, "longitude": -100.4205, "state": "Oklahoma", "county": "BEAVER", "operator_name": "4 OF US RESOURCES LLC", "well_type": "GAS", "well_status": "OR", "source": "Oklahoma Corporation Commission"}
{"api_number": "3500724154", "well_name": "PERKINS", "latitude": 36.918791, "longitude": -100.06217, "state": "Oklahoma", "county": "BEAVER", "operator_name": "4 OF US RESOURCES LLC", "well_type": "GAS", "well_status": "OR", "source": "Oklahoma Corporation Commission"}
{"api_number": "3500724159", "well_name": "KIOWA CREEK", "latitude": 36.727887, "longitude": -100.1518, "state": "Oklahoma", "county": "BEAVER", "operator_name": "4 OF US RESOURCES LLC", "well_type": "GAS", "well_status": "OR", "source": "Oklahoma Corporation Commission"}
{"api_number": "3500724197", "well_name": "KIOWA CREEK", "latitude": 36.723808, "longitude": -100.1591, "state": "Oklahoma", "county": "BEAVER", "operator_name": "4 OF US RESOURCES LLC", "well_type": "GAS", "well_status": "OR", "source": "Oklahoma Corporation Commission"}
{"api_number": "3500724251", "well_name": "KAMAS", "latitude": 36.910493, "longitude": -100.3633, "state": "Oklahoma", "county": "BEAVER", "operator_name": "4 OF US RESOURCES LLC", "well_type": "GAS", "well_status": "OR", "source": "Oklahoma Corporation Commission"}
{"api_number": "3500724252", "well_name": "C.C. RANCH", "latitude": 36.662483, "longitude": -100.4413, "state": "Oklahoma", "county": "BEAVER", "operator_name": "R & A MOORE INC", "well_type": "GAS", "well_status": "OR", "source": "Oklahoma Corporation Commission"}
{"api_number": "3500724279", "well_name": "C.C. RANCH", "latitude": 36.667014, "longitude": -100.4497, "state": "Oklahoma", "county": "BEAVER", "operator_name": "R & A MOORE INC", "well_type": "GAS", "well_status": "OR", "source": "Oklahoma Corporation Commission"}
{"api_number": "3500724284", "well_name": "CHANCE", "latitude": 36.85248, "longitude": -100.3362, "state": "Oklahoma", "county": "BEAVER", "operator_name": "R & A MOORE INC", "well_type": "GAS", "well_status": "OR", "source": "Oklahoma Corporation Commission"}
{"api_number": "3500724352", "well_name": "CLEAR CREEK", "latitude": 36.707796, "longitude": -100.4576, "state": "Oklahoma", "county": "BEAVER", "operator_name": "4 OF US RESOURCES LLC", "well_type": "GAS", "well_status": "OR", "source": "Oklahoma Corporation Commission"}
{"api_number": "3500724618", "well_name": "KIOWA CREEK", "latitude": 36.729247, "longitude": -100.1557, "state": "Oklahoma", "county": "BEAVER", "operator_name": "4 OF US RESOURCES LLC", "well_type": "GAS", "well_status": "OR", "source": "Oklahoma Corporation Commission"}
{"api_number": "3500725134", "well_name": "BEAVER RIVER", "latitude": 36.815655, "longitude": -100.4115, "state": "Oklahoma", "county": "BEAVER", "operator_name": "4 OF US RESOURCES LLC", "well_type": "GAS", "well_status": "OR", "source": "Oklahoma Corporation Commission"}
{"api_number": "3500725386", "well_name": "FRANTZ \"A\"", "latitude": 36.645541, "longitude": -100.722563, "state": "Oklahoma", "county": "BEAVER", "operator_name": "EXCELSIOR EXPLORATION CORPORATION", "well_type": "OIL", "well_status": "OR", "source": "Oklahoma Corporation Commission"}
{"api_number": "3500725409", "well_name": "PARKER", "latitude": 36.645787, "longitude": -100.59766, "state": "Oklahoma", "county": "BEAVER", "operator_name": "EXCELSIOR EXPLORATION CORPORATION", "well_type": "OIL", "well_status": "OR", "source": "Oklahoma Corporation Commission"}
{"api_number": "3500725438", "well_name": "NELSON", "latitude": 36.57316, "longitude": -100.44748, "state": "Oklahoma", "county": "BEAVER", "operator_name": "EXCELSIOR EXPLORATION CORPORATION", "well_type": "OIL", "well_status": "OR", "source": "Oklahoma Corporation Commission"}
{"api_number": "3500725503", "well_name": "REEVES", "latitude": 36.54426, "longitude": -100.45937, "state": "Oklahoma", "county": "BEAVER", "operator_name": "EXCELSIOR EXPLORATION CORPORATION", "well_type": "OIL", "well_status": "OR", "source": "Oklahoma Corporation Commission"}
{"api_number": "3500725532", "well_name": "SAGER FARMS", "latitude": 36.529942, "longitude": -100.669812, "state": "Oklahoma", "county": "BEAVER", "operator_name": "EXCELSIOR EXPLORATION CORPORATION", "well_type": "OIL", "well_status": "OR", "source": "Oklahoma Corporation Commission"}
{"api_number": "3500725537", "well_name": "THORNTON", "latitude": 36.558915, "longitude": -100.795814, "state": "Oklahoma", "county": "BEAVER", "operator_name": "EXCELSIOR EXPLORATION CORPORATION", "well_type": "OIL", "well_status": "OR", "source": "Oklahoma Corporation Commission"}
{"api_number": "3500725542", "well_name": "PEARSON", "latitude": 36.58666, "longitude": -100.795894, "state": "Oklahoma", "county": "BEAVER", "operator_name": "EXCELSIOR EXPLORATION CORPORATION", "well_type": "OIL", "well_status": "OR", "source": "Oklahoma Corporation Commission"}
{"api_number": "3500725567", "well_name": "HUGHES PARTNERSHIP", "latitude": 36.61713, "longitude": -100.52879, "state": "Oklahoma", "county": "BEAVER", "operator_name": "EXCELSIOR EXPLORATION CORPORATION", "well_type": "OIL", "well_status": "OR", "source": "Oklahoma Corporation Commission"}
{"api_number": "3500725573", "well_name": "PADGET", "latitude": 36.529942, "longitude": -100.725013, "state": "Oklahoma", "county": "BEAVER", "operator_name": "EXCELSIOR EXPLORATION CORPORATION", "well_type": "OIL", "well_status": "OR", "source": "Oklahoma Corporation Commission"}
{"api_number": "3500725581", "well_name": "MORRIS", "latitude": 36.513623, "longitude": -100.651918, "state": "Oklahoma", "county": "BEAVER", "operator_name": "EXCELSIOR EXPLORATION CORPORATION", "well_type": "OIL", "well_status": "OR", "source": "Oklahoma Corporation Commission"}
{"api_number": "3500725624", "well_name": "OLLENBERGER", "latitude": 36.602403, "longitude": -100.795536, "state": "Oklahoma", "county": "BEAVER", "operator_name": "EXCELSIOR EXPLORATION CORPORATION", "well_type": "OIL", "well_status": "OR", "source": "Oklahoma Corporation Commission"}
{"api_number": "3500725625", "well_name": "SAGER TRUST", "latitude": 36.630277, "longitude": -100.814231, "state": "Oklahoma", "county": "BEAVER", "operator_name": "EXCELSIOR EXPLORATION CORPORATION", "well_type": "OIL", "well_status": "OR", "source": "Oklahoma Corporation Commission"}
{"api_number": "3500725631", "well_name": "SAGER TRUST", "latitude": 36.630277, "longitude": -100.814231, "state": "Oklahoma", "county": "BEAVER", "operator_name": "EXCELSIOR EXPLORATION CORPORATION", "well_type": "OIL", "well_status": "OR", "source": "Oklahoma Corporation Commission"}
{"api_number": "3500725633", "well_name": "PSHIGODA", "latitude": 36.558389, "longitude": -100.762493, "state": "Oklahoma", "county": "BEAVER", "operator_name": "EXCELSIOR EXPLORATION CORPORATION", "well_type": "OIL", "well_status": "OR", "source": "Oklahoma Corporation Commission"}
{"api_number": "3500725646", "well_name": "SAGER", "latitude": 36.557666, "longitude": -100.71759, "state": "Oklahoma", "county": "BEAVER", "operator_name": "EXCELSIOR EXPLORATION CORPORATION", "well_type": "OIL", "well_status": "OR", "source": "Oklahoma Corporation Commission"}
{"api_number": "3500725647", "well_name": "MPH", "latitude": 36.558824, "longitude": -100.734877, "state": "Oklahoma", "county": "BEAVER", "operator_name": "EXCELSIOR EXPLORATION CORPORATION", "well_type": "OIL", "well_status": "OR", "source": "Oklahoma Corporation Commission"}
{"api_number": "3500735000", "well_name": "WEST ELMWOOD (C.J.FRAZEE#1)", "latitude": 36.586241, "longitude": -100.5939, "state": "Oklahoma", "county": "BEAVER", "operator_name": "EXCELSIOR EXPLORATION CORPORATION", "well_type": "OIL", "well_status": "OR", "source": "Oklahoma Corporation Commission"}
{"api_number": "3500735112", "well_name": "BARBY", "latitude": 36.886744, "longitude": -100.1984, "state": "Oklahoma", "county": "BEAVER", "operator_name": "4 OF US RESOURCES LLC", "well_type": "GAS", "well_status": "OR", "source": "Oklahoma Corporation Commission"}
{"api_number": "3500735224", "well_name": "KAMAS", "latitude": 36.912297, "longitude": -100.3384, "state": "Oklahoma", "county": "BEAVER", "operator_name": "RAW CRUDE OIL & GAS, L.L.C.", "well_type": "GAS", "well_status": "OR", "source": "Oklahoma Corporation Commission"}
{"api_number": "3500735374", "well_name": "LLOYD LONG", "latitude": 36.911498, "longitude": -100.0501, "state": "Oklahoma", "county": "BEAVER", "operator_name": "CIMARRON ENERGY LLC", "well_type": "GAS", "well_status": "OR", "source": "Oklahoma Corporation Commission"}
{"api_number": "3500735548", "well_name": "WEST ELMWOOD(R.S. CUSTER#1)", "latitude": 36.581655, "longitude": -100.6165, "state": "Oklahoma", "county": "BEAVER", "operator_name": "EXCELSIOR EXPLORATION CORPORATION", "well_type": "OIL", "well_status": "OR", "source": "Oklahoma Corporation Commission"}
{"api_number": "3500735549", "well_name": "WEST ELMWOOD(R A CUSTER#2)", "latitude": 36.583468, "longitude": -100.6209, "state": "Oklahoma", "county": "BEAVER", "operator_name": "EXCELSIOR EXPLORATION CORPORATION", "well_type": "OIL", "well_status": "OR", "source": "Oklahoma Corporation Commission"}
{"api_number": "3500735882", "well_name": "W.ELMWOOD (G. BUECHNER #1)", "latitude": 36.57803, "longitude": -100.6165, "state": "Oklahoma", "county": "BEAVER", "operator_name": "EXCELSIOR EXPLORATION CORPORATION", "well_type": "OIL", "well_status": "OR", "source": "Oklahoma Corporation Commission"}
{"api_number": "3500735913", "well_name": "WEST ELMWOOD (OLLIE CATES\"A\"#1", "latitude": 36.578058, "longitude": -100.6029, "state": "Oklahoma", "county": "BEAVER", "operator_name": "EXCELSIOR EXPLORATION CORPORATION", "well_type": "OIL", "well_status": "OR", "source": "Oklahoma Corporation Commission"}
{"api_number": "3500735914", "well_name": "WEST ELMWOOD(OLLIE CATES\"B\"#1)", "latitude": 36.578058, "longitude": -100.5984, "state": "Oklahoma", "county": "BEAVER", "operator_name": "EXCELSIOR EXPLORATION CORPORATION", "well_type": "OIL", "well_status": "OR", "source": "Oklahoma Corporation Commission"}
{"api_number": "3500735915", "well_name": "WEST ELMWOOD(EDMOND E.FRONK#1)", "latitude": 36.58528, "longitude": -100.6254, "state": "Oklahoma", "county": "BEAVER", "operator_name": "EXCELSIOR EXPLORATION CORPORATION", "well_type": "OIL", "well_status": "OR", "source": "Oklahoma Corporation Commission"}
{"api_number": "3500735919", "well_name": "W. ELMWOOD (T.S. MILLER #2)", "latitude": 36.585309, "longitude": -100.6029, "state": "Oklahoma", "county": "BEAVER", "operator_name": "EXCELSIOR EXPLORATION CORPORATION", "well_type": "OIL", "well_status": "OR", "source": "Oklahoma Corporation Commission"}
{"api_number": "3500736089", "well_name": "LONG GAS UNIT", "latitude": 36.92597, "longitude": -100.05033, "state": "Oklahoma", "county": "BEAVER", "operator_name": "CIMARRON ENERGY LLC", "well_type": "GAS", "well_status": "OR", "source": "Oklahoma Corporation Commission"}
{"api_number": "3500736236", "well_name": "EVANS B", "latitude": 36.842834, "longitude": -100.3686, "state": "Oklahoma", "county": "BEAVER", "operator_name": "OIL FIELD PRODUCTION INC", "well_type": "GAS", "well_status": "OR", "source": "Oklahoma Corporation Commission"}
{"api_number": "3500736257", "well_name": "MILES E", "latitude": 36.83922, "longitude": -100.4452, "state": "Oklahoma", "county": "BEAVER", "operator_name": "OIL FIELD PRODUCTION INC", "well_type": "GAS", "well_status": "OR", "source": "Oklahoma Corporation Commission"}
{"api_number": "3500736403", "well_name": "WEST ELMWOOD (CORNELL#3)", "latitude": 36.60528, "longitude": -100.601879, "state": "Oklahoma", "county": "BEAVER", "operator_name": "EXCELSIOR EXPLORATION CORPORATION", "well_type": "OIL", "well_status": "OR", "source": "Oklahoma Corporation Commission"}
{"api_number": "3500736485", "well_name": "COOK UNIT", "latitude": 36.986683, "longitude": -100.868, "state": "Oklahoma", "county": "BEAVER", "operator_name": "4 OF US RESOURCES LLC", "well_type": "GAS", "well_status": "OR", "source": "Oklahoma Corporation Commission"}
{"api_number": "3500736497", "well_name": "WEST ELMWOOD UNIT(FRAZEE#1)", "latitude": 36.591678, "longitude": -100.5939, "state": "Oklahoma", "county": "BEAVER", "operator_name": "EXCELSIOR EXPLORATION CORPORATION", "well_type": "OIL", "well_status": "OR", "source": "Oklahoma Corporation Commission"}
{"api_number": "3500736499", "well_name": "W.ELMWOOD UNIT(CRAMER STATE)", "latitude": 36.59088, "longitude": -100.59707, "state": "Oklahoma", "county": "BEAVER", "operator_name": "EXCELSIOR EXPLORATION CORPORATION", "well_type": "OIL", "well_status": "OR", "source": "Oklahoma Corporation Commission"}
{"api_number": "3500736500", "well_name": "WEST ELMWOOD UNIT (CRAMER STATE 3)", "latitude": 36.589841, "longitude": -100.6029, "state": "Oklahoma", "county": "BEAVER", "operator_name": "EXCELSIOR EXPLORATION CORPORATION", "well_type": "TM", "well_status": "OR", "source": "Oklahoma Corporation Commission"}
{"api_number": "3500736502", "well_name": "W.ELMWOOD UNIT(CRAMER STATE)", "latitude": 36.59607, "longitude": -100.6007, "state": "Oklahoma", "county": "BEAVER", "operator_name": "EXCELSIOR EXPLORATION CORPORATION", "well_type": "OIL", "well_status": "OR", "source": "Oklahoma Corporation Commission"}
{"api_number": "3500736504", "well_name": "W.ELMWOOD UNIT(CRAMER STATE#7)", "latitude": 36.588933, "longitude": -100.6119, "state": "Oklahoma", "county": "BEAVER", "operator_name": "EXCELSIOR EXPLORATION CORPORATION", "well_type": "OIL", "well_status": "OR", "source": "Oklahoma Corporation Commission"}
{"api_number": "3500736505", "well_name": "W.ELMWOOD UNNIT(CRAMER-STATE#8", "latitude": 36.599637, "longitude": -100.60612, "state": "Oklahoma", "county": "BEAVER", "operator_name": "EXCELSIOR EXPLORATION CORPORATION", "well_type": "OIL", "well_status": "OR", "source": "Oklahoma Corporation Commission"}
{"api_number": "3500750006", "well_name": "FRONK E E (HAMON FRONK#2)", "latitude": 36.581655, "longitude": -100.6254, "state": "Oklahoma", "county": "BEAVER", "operator_name": "EXCELSIOR EXPLORATION CORPORATION", "well_type": "OIL", "well_status": "OR", "source": "Oklahoma Corporation Commission"}
{"api_number": "3500920002", "well_name": "GILBREATH", "latitude": 35.28111, "longitude": -99.81139, "state": "Oklahoma", "county": "BECKHAM", "operator_name": "OKLAHOMA PRIME ENERGY LLC", "well_type": "GAS", "well_status": "OR", "source": "Oklahoma Corporation Commission"}
{"api_number": "3500920628", "well_name": "CARLTON SMITH TRUST", "latitude": 35.35642, "longitude": -99.98619, "state": "Oklahoma", "county": "BECKHAM", "operator_name": "RAW CRUDE OIL & GAS, L.L.C.", "well_type": "GAS", "well_status": "OR", "source": "Oklahoma Corporation Commission"}
{"api_number": "3500921170", "well_name": "HARDIN", "latitude": 35.28528, "longitude": -99.81306, "state": "Oklahoma", "county": "BECKHAM", "operator_name": "OKLAHOMA PRIME ENERGY LLC", "well_type": "GAS", "well_status": "OR", "source": "Oklahoma Corporation Commission"}
{"api_number": "3501120184", "well_name": "HENRY BOECKMAN", "latitude": 36.02563, "longitude": -98.42758, "state": "Oklahoma", "county": "BLAINE", "operator_name": "OKLAHOMA PRIME ENERGY LLC", "well_type": "GAS", "well_status": "OR", "source": "Oklahoma Corporation Commission"}
{"api_number": "3501120212", "well_name": "WAYNE SNYDER UNT \"A\"", "latitude": 36.012779, "longitude": -98.62143, "state": "Oklahoma", "county": "BLAINE", "operator_name": "RAW CRUDE OIL & GAS, L.L.C.", "well_type": "OIL", "well_status": "OR", "source": "Oklahoma Corporation Commission"}
{"api_number": "3501120471", "well_name": "BOECKMAN", "latitude": 36.0169, "longitude": -98.4251, "state": "Oklahoma", "county": "BLAINE", "operator_name": "OKLAHOMA PRIME ENERGY LLC", "well_type": "GAS", "well_status": "OR", "source": "Oklahoma Corporation Commission"}
{"api_number": "3501120550", "well_name": "WHEELER UNIT", "latitude": 35.902283, "longitude": -98.3117, "state": "Oklahoma", "county": "BLAINE", "operator_name": "CIMARRON ENERGY LLC", "well_type": "GAS", "well_status": "OR", "source": "Oklahoma Corporation Commission"}
{"api_number": "3501120785", "well_name": "BILL \"A\"", "latitude": 36.012026, "longitude": -98.40197, "state": "Oklahoma", "county": "BLAINE", "operator_name": "RAW CRUDE OIL & GAS, L.L.C.", "well_type": "GAS", "well_status": "OR", "source": "Oklahoma Corporation Commission"}
{"api_number": "3501121652", "well_name": "CONLEY", "latitude": 35.843031, "longitude": -98.37271, "state": "Oklahoma", "county": "BLAINE", "operator_name": "RAW CRUDE OIL & GAS, L.L.C.", "well_type": "GAS", "well_status": "OR", "source": "Oklahoma Corporation Commission"}
{"api_number": "3501121794", "well_name": "STRADER", "latitude": 36.132593, "longitude": -98.44429, "state": "Oklahoma", "county": "BLAINE", "operator_name": "NORTH EAST OKLAHOMA WELL SERVICE LLC", "well_type": "OIL", "well_status": "OR", "source": "Oklahoma Corporation Commission"}
{"api_number": "3501121829", "well_name": "WAGGONER", "latitude": 36.148877, "longitude": -98.3474, "state": "Oklahoma", "county": "BLAINE", "operator_name": "RAW CRUDE OIL & GAS, L.L.C.", "well_type": "GAS", "well_status": "OR", "source": "Oklahoma Corporation Commission"}
{"api_number": "3501122051", "well_name": "FLESHMAN", "latitude": 35.817501, "longitude": -98.23932, "state": "Oklahoma", "county": "BLAINE", "operator_name": "4 OF US RESOURCES LLC", "well_type": "OIL", "well_status": "OR", "source": "Oklahoma Corporation Commission"}
{"api_number": "3501122121", "well_name": "SCHEFFLER", "latitude": 35.97027, "longitude": -98.30168, "state": "Oklahoma", "county": "BLAINE", "operator_name": "CIMARRON ENERGY LLC", "well_type": "OIL", "well_status": "OR", "source": "Oklahoma Corporation Commission"}
{"api_number": "3501122152", "well_name": "EVELYN", "latitude": 36.070951, "longitude": -98.42092, "state": "Oklahoma", "county": "BLAINE", "operator_name": "RAW CRUDE OIL & GAS, L.L.C.", "well_type": "OIL", "well_status": "OR", "source": "Oklahoma Corporation Commission"}
{"api_number": "3501122249", "well_name": "NEUFELD C", "latitude": 36.04829, "longitude": -98.44429, "state": "Oklahoma", "county": "BLAINE", "operator_name": "4 OF US RESOURCES LLC", "well_type": "GAS", "well_status": "OR", "source": "Oklahoma Corporation Commission"}
{"api_number": "3501122379", "well_name": "NIPPERT", "latitude": 36.068221, "longitude": -98.48887, "state": "Oklahoma", "county": "BLAINE", "operator_name": "OKLAHOMA PRIME ENERGY LLC", "well_type": "OIL", "well_status": "OR", "source": "Oklahoma Corporation Commission"}
{"api_number": "3501122419", "well_name": "C.O.E.", "latitude": 36.158268, "longitude": -98.61976, "state": "Oklahoma", "county": "BLAINE", "operator_name": "RAW CRUDE OIL & GAS, L.L.C.", "well_type": "OIL", "well_status": "OR", "source": "Oklahoma Corporation Commission"}
{"api_number": "3501122910", "well_name": "SCHENK", "latitude": 36.012831, "longitude": -98.27328, "state": "Oklahoma", "county": "BLAINE", "operator_name": "RAW CRUDE OIL & GAS, L.L.C.", "well_type": "GAS", "well_status": "OR", "source": "Oklahoma Corporation Commission"}
{"api_number": "3501123275", "well_name": "PECK", "latitude": 35.83388889, "longitude": -98.26491667, "state": "Oklahoma", "county": "BLAINE", "operator_name": "RAW CRUDE OIL & GAS, L.L.C.", "well_type": "OIL", "well_status": "OR", "source": "Oklahoma Corporation Commission"}
{"api_number": "3501123335", "well_name": "SCOTT", "latitude": 35.83047222, "longitude": -98.26291667, "state": "Oklahoma", "county": "BLAINE", "operator_name": "RAW CRUDE OIL & GAS, L.L.C.", "well_type": "GAS", "well_status": "OR", "source": "Oklahoma Corporation Commission"}
{"api_number": "3501124168", "well_name": "HULK", "latitude": 36.087621, "longitude": -98.213704, "state": "Oklahoma", "county": "BLAINE", "operator_name": "HUSKY VENTURES INC", "well_type": "NT", "well_status": "OR", "source": "Oklahoma Corporation Commission"}
{"api_number": "3501124169", "well_name": "BIG RED", "latitude": 36.087576, "longitude": -98.221145, "state": "Oklahoma", "county": "BLAINE", "operator_name": "HUSKY VENTURES INC", "well_type": "NT", "well_status": "OR", "source": "Oklahoma Corporation Commission"}
{"api_number": "3501500174", "well_name": "KINGMILLER", "latitude": 34.9446127, "longitude": -98.1770007, "state": "Oklahoma", "county": "CADDO", "operator_name": "OKLAHOMA SILURIAN PARTNERS", "well_type": "NT", "well_status": "OR", "source": "Oklahoma Corporation Commission"}
{"api_number": "3501500189", "well_name": "SCOTT", "latitude": 35.3648, "longitude": -98.59791, "state": "Oklahoma", "county": "CADDO", "operator_name": "OTC/OCC NOT ASSIGNED", "well_type": "DRY", "well_status": "OR", "source": "Oklahoma Corporation Commission"}
{"api_number": "3501500308", "well_name": "MCKENNA LIZZIE", "latitude": 34.93876, "longitude": -98.168753, "state": "Oklahoma", "county": "CADDO", "operator_name": "OTC/OCC NOT ASSIGNED", "well_type": "NT", "well_status": "OR", "source": "Oklahoma Corporation Commission"}
{"api_number": "3501520241", "well_name": "SHADID UNIT", "latitude": 35.256414, "longitude": -98.1590894, "state": "Oklahoma", "county": "CADDO", "operator_name": "RAW CRUDE OIL & GAS, L.L.C.", "well_type": "GAS", "well_status": "OR", "source": "Oklahoma Corporation Commission"}
{"api_number": "3501520264", "well_name": "COMSTOCK", "latitude": 35.023102, "longitude": -98.61914, "state": "Oklahoma", "county": "CADDO", "operator_name": "LAWTON BROTHERS INC", "well_type": "OIL", "well_status": "OR", "source": "Oklahoma Corporation Commission"}
{"api_number": "3501520270", "well_name": "COMSTOCK", "latitude": 35.023589, "longitude": -98.62004, "state": "Oklahoma", "county": "CADDO", "operator_name": "LAWTON BROTHERS INC", "well_type": "OIL", "well_status": "OR", "source": "Oklahoma Corporation Commission"}
{"api_number": "3501520279", "well_name": "COMSTOCK", "latitude": 35.024703, "longitude": -98.618499, "state": "Oklahoma", "county": "CADDO", "operator_name": "LAWTON BROTHERS INC", "well_type": "OIL", "well_status": "OR", "source": "Oklahoma Corporation Commission"}
{"api_number": "3501520283", "well_name": "COMSTOCK", "latitude": 35.02538, "longitude": -98.62015, "state": "Oklahoma", "county": "CADDO", "operator_name": "LAWTON BROTHERS INC", "well_type": "OIL", "well_status": "OR", "source": "Oklahoma Corporation Commission"}
{"api_number": "3501520447", "well_name": "SHADID", "latitude": 35.2551737, "longitude": -98.1637292, "state": "Oklahoma", "county": "CADDO", "operator_name": "RAW CRUDE OIL & GAS, L.L.C.", "well_type": "GAS", "well_status": "OR", "source": "Oklahoma Corporation Commission"}
{"api_number": "3501521435", "well_name": "JENNINGS", "latitude": 35.32297222, "longitude": -98.49555556, "state": "Oklahoma", "county": "CADDO", "operator_name": "4 OF US RESOURCES LLC", "well_type": "GAS", "well_status": "OR", "source": "Oklahoma Corporation Commission"}
{"api_number": "3501521571", "well_name": "STEVENS", "latitude": 35.3449516, "longitude": -98.4959041, "state": "Oklahoma", "county": "CADDO", "operator_name": "4 OF US RESOURCES LLC", "well_type": "GAS", "well_status": "OR", "source": "Oklahoma Corporation Commission"}
{"api_number": "3501521746", "well_name": "PROPPS", "latitude": 35.0109424, "longitude": -98.2640836, "state": "Oklahoma", "county": "CADDO", "operator_name": "BP EXPLORATION INC", "well_type": "DRY", "well_status": "OR", "source": "Oklahoma Corporation Commission"}
{"api_number": "3501521878", "well_name": "E.L. YOUNG", "latitude": 35.308819, "longitude": -98.470159, "state": "Oklahoma", "county": "CADDO", "operator_name": "4 OF US RESOURCES LLC", "well_type": "GAS", "well_status": "OR", "source": "Oklahoma Corporation Commission"}
{"api_number": "3501521884", "well_name": "GRIFFITTS-TURNBULL", "latitude": 35.02544444, "longitude": -98.20519444, "state": "Oklahoma", "county": "CADDO", "operator_name": "4 OF US RESOURCES LLC", "well_type": "GAS", "well_status": "OR", "source": "Oklahoma Corporation Commission"}
{"api_number": "3501522063", "well_name": "KIMBLE", "latitude": 35.50233563, "longitude": -98.61740538, "state": "Oklahoma", "county": "CADDO", "operator_name": "OIL FIELD PRODUCTION INC", "well_type": "GAS", "well_status": "OR", "source": "Oklahoma Corporation Commission"}
{"api_number": "3501522069", "well_name": "SCHOOL LAND", "latitude": 34.9448588, "longitude": -98.4558558, "state": "Oklahoma", "county": "CADDO", "operator_name": "SANTA FE MINERALS", "well_type": "NT", "well_status": "OR", "source": "Oklahoma Corporation Commission"}
{"api_number": "3501522552", "well_name": "RECTOR", "latitude": 35.3304929, "longitude": -98.4958162, "state": "Oklahoma", "county": "CADDO", "operator_name": "4 OF US RESOURCES LLC", "well_type": "GAS", "well_status": "OR", "source": "Oklahoma Corporation Commission"}
{"api_number": "3501535268", "well_name": "KUNSEMULLER", "latitude": 34.944613, "longitude": -98.1747987, "state": "Oklahoma", "county": "CADDO", "operator_name": "CHANEY & COGBURN ROUSTABOUT WELL SERV", "well_type": "NT", "well_status": "OR", "source": "Oklahoma Corporation Commission"}
{"api_number": "3501535282", "well_name": "DAY", "latitude": 34.94824, "longitude": -98.1659906, "state": "Oklahoma", "county": "CADDO", "operator_name": "HONDO OIL & GAS COMPANY", "well_type": "OIL", "well_status": "OR", "source": "Oklahoma Corporation Commission"}
{"api_number": "3501535285", "well_name": "DAY", "latitude": 34.9482399, "longitude": -98.1681926, "state": "Oklahoma", "county": "CADDO", "operator_name": "HONDO OIL & GAS COMPANY", "well_type": "OIL", "well_status": "OR", "source": "Oklahoma Corporation Commission"}
{"api_number": "3501535286", "well_name": "DAY", "latitude": 34.9482398, "longitude": -98.1703947, "state": "Oklahoma", "county": "CADDO", "operator_name": "HONDO OIL & GAS COMPANY", "well_type": "OIL", "well_status": "OR", "source": "Oklahoma Corporation Commission"}
{"api_number": "3501535288", "well_name": "BRISCOE", "latitude": 34.9554922, "longitude": -98.1770007, "state": "Oklahoma", "county": "CADDO", "operator_name": "MINK OIL COMPANY", "well_type": "NT", "well_status": "OR", "source": "Oklahoma Corporation Commission"}
{"api_number": "3501535303", "well_name": "DIXON", "latitude": 34.9518661, "longitude": -98.1725967, "state": "Oklahoma", "county": "CADDO", "operator_name": "HONDO OIL & GAS COMPANY", "well_type": "OIL", "well_status": "OR", "source": "Oklahoma Corporation Commission"}
{"api_number": "3501535313", "well_name": "HENRY-E", "latitude": 34.9536795, "longitude": -98.1703947, "state": "Oklahoma", "county": "CADDO", "operator_name": "HONDO OIL & GAS COMPANY", "well_type": "OIL", "well_status": "OR", "source": "Oklahoma Corporation Commission"}
{"api_number": "3501535326", "well_name": "KECHI", "latitude": 34.9464262, "longitude": -98.1747987, "state": "Oklahoma", "county": "CADDO", "operator_name": "WILLIAMS EXPLORATION COMPANY", "well_type": "NT", "well_status": "OR", "source": "Oklahoma Corporation Commission"}
{"api_number": "3501535338", "well_name": "W THOMAS", "latitude": 34.9428337, "longitude": -98.1968376, "state": "Oklahoma", "county": "CADDO", "operator_name": "MAGNOLIA PETROLEUM LTD", "well_type": "NT", "well_status": "OR", "source": "Oklahoma Corporation Commission"}
{"api_number": "3501535367", "well_name": "WESTERVELT", "latitude": 34.9500867, "longitude": -98.1968377, "state": "Oklahoma", "county": "CADDO", "operator_name": "BIFFLE SR BOB", "well_type": "OIL", "well_status": "OR", "source": "Oklahoma Corporation Commission"}
{"api_number": "3501535401", "well_name": "SHERWOOD", "latitude": 34.9482743, "longitude": -98.1880296, "state": "Oklahoma", "county": "CADDO", "operator_name": "THREE-N-ONE", "well_type": "OIL", "well_status": "OR", "source": "Oklahoma Corporation Commission"}
{"api_number": "3501535449", "well_name": "J P MCKENNA", "latitude": 34.959119, "longitude": -98.170396, "state": "Oklahoma", "county": "CADDO", "operator_name": "UNIVERSAL DRILLING COMPANY", "well_type": "NT", "well_status": "OR", "source": "Oklahoma Corporation Commission"}
{"api_number": "3501535512", "well_name": "CHADWELL", "latitude": 34.9663349, "longitude": -98.1505587, "state": "Oklahoma", "county": "CADDO", "operator_name": "DUESLER WELDING SERVICE", "well_type": "OIL", "well_status": "OR", "source": "Oklahoma Corporation Commission"}
{"api_number": "3501535515", "well_name": "CHADWELL", "latitude": 34.9645216, "longitude": -98.1505587, "state": "Oklahoma", "county": "CADDO", "operator_name": "DUESLER WELDING SERVICE", "well_type": "OIL", "well_status": "OR", "source": "Oklahoma Corporation Commission"}
{"api_number": "3501535621", "well_name": "JOHN RUZICKA", "latitude": 34.968122, "longitude": -98.19969, "state": "Oklahoma", "county": "CADDO", "operator_name": "OTC/OCC NOT ASSIGNED", "well_type": "OIL", "well_status": "OR", "source": "Oklahoma Corporation Commission"}
{"api_number": "3501535703", "well_name": "HOWARD", "latitude": 34.9791875, "longitude": -98.2343286, "state": "Oklahoma", "county": "CADDO", "operator_name": "HONDO OIL & GAS COMPANY", "well_type": "DRY", "well_status": "OR", "source": "Oklahoma Corporation Commission"}
{"api_number": "3501535985", "well_name": "PAU-KUNE", "latitude": 34.9245914, "longitude": -98.1351221, "state": "Oklahoma", "county": "CADDO", "operator_name": "MAGNOLIA PETROLEUM LTD", "well_type": "NT", "well_status": "OR", "source": "Oklahoma Corporation Commission"}
{"api_number": "3501536112", "well_name": "OAKS A ((I.O)OAKS 1-A1A)", "latitude": 34.94839, "longitude": -98.234833, "state": "Oklahoma", "county": "CADDO", "operator_name": "BECHEL OIL LLC", "well_type": "TM", "well_status": "OR", "source": "Oklahoma Corporation Commission"}
{"api_number": "3501536120", "well_name": "OAKS \"A\"", "latitude": 34.94827, "longitude": -98.23473, "state": "Oklahoma", "county": "CADDO", "operator_name": "BECHEL OIL LLC", "well_type": "OIL", "well_status": "OR", "source": "Oklahoma Corporation Commission"}
{"api_number": "3501536121", "well_name": "OAKS \"A\"", "latitude": 34.94838, "longitude": -98.23705, "state": "Oklahoma", "county": "CADDO", "operator_name": "BECHEL OIL LLC", "well_type": "OIL", "well_status": "OR", "source": "Oklahoma Corporation Commission"}
{"api_number": "3501536122", "well_name": "OAKS \"A\"", "latitude": 34.94827, "longitude": -98.23474, "state": "Oklahoma", "county": "CADDO", "operator_name": "BECHEL OIL LLC", "well_type": "OIL", "well_status": "OR", "source": "Oklahoma Corporation Commission"}
{"api_number": "3501536365", "well_name": "STEVENS", "latitude": 34.94061, "longitude": -98.18023, "state": "Oklahoma", "county": "CADDO", "operator_name": "OTC/OCC NOT ASSIGNED", "well_type": "OIL", "well_status": "OR", "source": "Oklahoma Corporation Commission"}
{"api_number": "3501536511", "well_name": "O LINDSAY", "latitude": 34.9428666, "longitude": -98.2056645, "state": "Oklahoma", "county": "CADDO", "operator_name": "MAGNOLIA PETROLEUM LTD", "well_type": "NT", "well_status": "OR", "source": "Oklahoma Corporation Commission"}
{"api_number": "3501536557", "well_name": "J O COTLIN", "latitude": 34.9428668, "longitude": -98.1990584, "state": "Oklahoma", "county": "CADDO", "operator_name": "MAGNOLIA PETROLEUM LTD", "well_type": "NT", "well_status": "OR", "source": "Oklahoma Corporation Commission"}
{"api_number": "3501536638", "well_name": "NIDAY", "latitude": 34.9571863, "longitude": -98.121896, "state": "Oklahoma", "county": "CADDO", "operator_name": "NIDAY DAVID E SR", "well_type": "OIL", "well_status": "OR", "source": "Oklahoma Corporation Commission"}
{"api_number": "3501536671", "well_name": "TAYLOR", "latitude": 34.9644397, "longitude": -98.1152888, "state": "Oklahoma", "county": "CADDO", "operator_name": "SPARKS ENERGY CORPORATION", "well_type": "OIL", "well_status": "OR", "source": "Oklahoma Corporation Commission"}
{"api_number": "3501536672", "well_name": "TAYLOR", "latitude": 34.966253, "longitude": -98.11639, "state": "Oklahoma", "county": "CADDO", "operator_name": "SPARKS ENERGY CORPORATION", "well_type": "OIL", "well_status": "OR", "source": "Oklahoma Corporation Commission"}
{"api_number": "3501536673", "well_name": "TAYLOR", "latitude": 34.9662529, "longitude": -98.1174912, "state": "Oklahoma", "county": "CADDO", "operator_name": "SPARKS ENERGY CORPORATION", "well_type": "OIL", "well_status": "OR", "source": "Oklahoma Corporation Commission"}
{"api_number": "3501536674", "well_name": "TAYLOR", "latitude": 34.9644396, "longitude": -98.1174912, "state": "Oklahoma", "county": "CADDO", "operator_name": "SPARKS ENERGY CORPORATION", "well_type": "OIL", "well_status": "OR", "source": "Oklahoma Corporation Commission"}
{"api_number": "3501536681", "well_name": "NIDAY", "latitude": 34.9571861, "longitude": -98.1240984, "state": "Oklahoma", "county": "CADDO", "operator_name": "NIDAY DAVID E SR", "well_type": "NT", "well_status": "OR", "source": "Oklahoma Corporation Commission"}
{"api_number": "3501536693", "well_name": "THORNTON-C", "latitude": 34.9681081, "longitude": -98.139531, "state": "Oklahoma", "county": "CADDO", "operator_name": "DUNDEE OIL & SUPPLY INC", "well_type": "OIL", "well_status": "OR", "source": "Oklahoma Corporation Commission"}
{"api_number": "3501536699", "well_name": "THORNTON", "latitude": 34.9681083, "longitude": -98.1373285, "state": "Oklahoma", "county": "CADDO", "operator_name": "DUNDEE OIL & SUPPLY INC", "well_type": "OIL", "well_status": "OR", "source": "Oklahoma Corporation Commission"}
{"api_number": "3501536810", "well_name": "THORNTON", "latitude": 34.9699213, "longitude": -98.1395309, "state": "Oklahoma", "county": "CADDO", "operator_name": "OKLAHOMA CRUDE EXPL CORP", "well_type": "DRY", "well_status": "OR", "source": "Oklahoma Corporation Commission"}
{"api_number": "3501536820", "well_name": "WOOLRIDGE", "latitude": 34.9572288, "longitude": -98.1373285, "state": "Oklahoma", "county": "CADDO", "operator_name": "MARKWELL JR ED L", "well_type": "OIL", "well_status": "OR", "source": "Oklahoma Corporation Commission"}
{"api_number": "3501536880", "well_name": "G.W. ENNIS", "latitude": 34.9390727, "longitude": -98.1051489, "state": "Oklahoma", "county": "CADDO", "operator_name": "2015 OIL LLC", "well_type": "OIL", "well_status": "OR", "source": "Oklahoma Corporation Commission"}
{"api_number": "3501536882", "well_name": "L K BINGHAM", "latitude": 34.93919444, "longitude": -98.10966667, "state": "Oklahoma", "county": "CADDO", "operator_name": "2015 OIL LLC", "well_type": "OIL", "well_status": "OR", "source": "Oklahoma Corporation Commission"}
{"api_number": "3501536883", "well_name": "L.K. BINGHAM", "latitude": 34.9374832, "longitude": -98.109201, "state": "Oklahoma", "county": "CADDO", "operator_name": "BECHEL OIL LLC", "well_type": "TM", "well_status": "OR", "source": "Oklahoma Corporation Commission"}
{"api_number": "3501536888", "well_name": "L K BINGHAM", "latitude": 34.94088889, "longitude": -98.10972222, "state": "Oklahoma", "county": "CADDO", "operator_name": "2015 OIL LLC", "well_type": "OIL", "well_status": "OR", "source": "Oklahoma Corporation Commission"}
{"api_number": "3501536889", "well_name": "L K BINGHAM", "latitude": 34.9373976, "longitude": -98.1076527, "state": "Oklahoma", "county": "CADDO", "operator_name": "2015 OIL LLC", "well_type": "OIL", "well_status": "OR", "source": "Oklahoma Corporation Commission"}
{"api_number": "3501536890", "well_name": "G.W. ENNIS", "latitude": 34.9375, "longitude": -98.10516667, "state": "Oklahoma", "county": "CADDO", "operator_name": "2015 OIL LLC", "well_type": "OIL", "well_status": "OR", "source": "Oklahoma Corporation Commission"}
{"api_number": "3501536892", "well_name": "L.K.BINGHAM", "latitude": 34.9356936, "longitude": -98.1074646, "state": "Oklahoma", "county": "CADDO", "operator_name": "2015 OIL LLC", "well_type": "OIL", "well_status": "OR", "source": "Oklahoma Corporation Commission"}
{"api_number": "3501536893", "well_name": "G W ENNIS", "latitude": 34.93563889, "longitude": -98.10511111, "state": "Oklahoma", "county": "CADDO", "operator_name": "2015 OIL LLC", "well_type": "OIL", "well_status": "OR", "source": "Oklahoma Corporation Commission"}
{"api_number": "3501536894", "well_name": "GEORGE W ENNIS", "latitude": 34.93561111, "longitude": -98.10302778, "state": "Oklahoma", "county": "CADDO", "operator_name": "2015 OIL LLC", "well_type": "OIL", "well_status": "OR", "source": "Oklahoma Corporation Commission"}
{"api_number": "3501550015", "well_name": "J L MCKENNA", "latitude": 34.9136698, "longitude": -98.1152859, "state": "Oklahoma", "county": "CADDO", "operator_name": "BOLIN OIL COMPANY", "well_type": "NT", "well_status": "OR", "source": "Oklahoma Corporation Commission"}
{"api_number": "3501720037", "well_name": "S P HELM", "latitude": 35.69958, "longitude": -98.22057, "state": "Oklahoma", "county": "CANADIAN", "operator_name": "RAW CRUDE OIL & GAS, L.L.C.", "well_type": "GAS", "well_status": "OR", "source": "Oklahoma Corporation Commission"}
{"api_number": "3501720430", "well_name": "LOMBARD", "latitude": 35.624548, "longitude": -97.788312, "state": "Oklahoma", "county": "CANADIAN", "operator_name": "RAW CRUDE OIL & GAS, L.L.C.", "well_type": "OIL", "well_status": "OR", "source": "Oklahoma Corporation Commission"}
{"api_number": "3501720483", "well_name": "RICE", "latitude": 35.603686, "longitude": -97.81497, "state": "Oklahoma", "county": "CANADIAN", "operator_name": "RAW CRUDE OIL & GAS, L.L.C.", "well_type": "OIL", "well_status": "OR", "source": "Oklahoma Corporation Commission"}
{"api_number": "3501720677", "well_name": "KRUGER", "latitude": 35.59672, "longitude": -97.82263, "state": "Oklahoma", "county": "CANADIAN", "operator_name": "RAW CRUDE OIL & GAS, L.L.C.", "well_type": "GAS", "well_status": "OR", "source": "Oklahoma Corporation Commission"}
{"api_number": "3501720845", "well_name": "JAMESON", "latitude": 35.694522, "longitude": -98.186386, "state": "Oklahoma", "county": "CANADIAN", "operator_name": "RAW CRUDE OIL & GAS, L.L.C.", "well_type": "GAS", "well_status": "OR", "source": "Oklahoma Corporation Commission"}
{"api_number": "3501720936", "well_name": "HILL HODGES", "latitude": 35.612401, "longitude": -97.794775, "state": "Oklahoma", "county": "CANADIAN", "operator_name": "SEAMAN BRENNAN DBA RED DIRT OIL & GAS", "well_type": "GAS", "well_status": "OR", "source": "Oklahoma Corporation Commission"}
{"api_number": "3501721059", "well_name": "MONTGOMERY", "latitude": 35.521046, "longitude": -97.81127, "state": "Oklahoma", "county": "CANADIAN", "operator_name": "RAW CRUDE OIL & GAS, L.L.C.", "well_type": "OIL", "well_status": "OR", "source": "Oklahoma Corporation Commission"}
{"api_number": "3501721178", "well_name": "MILLER", "latitude": 35.571242, "longitude": -97.98383, "state": "Oklahoma", "county": "CANADIAN", "operator_name": "RAW CRUDE OIL & GAS, L.L.C.", "well_type": "GAS", "well_status": "OR", "source": "Oklahoma Corporation Commission"}
{"api_number": "3501721326", "well_name": "SCHIEBER", "latitude": 35.658906, "longitude": -97.969873, "state": "Oklahoma", "county": "CANADIAN", "operator_name": "OIL FIELD PRODUCTION INC", "well_type": "GAS", "well_status": "OR", "source": "Oklahoma Corporation Commission"}
{"api_number": "3501721345", "well_name": "GLOBE LIFE  D", "latitude": 35.473411, "longitude": -97.709428, "state": "Oklahoma", "county": "CANADIAN", "operator_name": "RAW CRUDE OIL & GAS, L.L.C.", "well_type": "GAS", "well_status": "OR", "source": "Oklahoma Corporation Commission"}
{"api_number": "3501722047", "well_name": "ERBAR", "latitude": 35.475404, "longitude": -97.92373, "state": "Oklahoma", "county": "CANADIAN", "operator_name": "CIMARRON ENERGY LLC", "well_type": "GAS", "well_status": "OR", "source": "Oklahoma Corporation Commission"}
{"api_number": "3501722143", "well_name": "CAROL", "latitude": 35.498109, "longitude": -97.715084, "state": "Oklahoma", "county": "CANADIAN", "operator_name": "RAW CRUDE OIL & GAS, L.L.C.", "well_type": "OIL", "well_status": "OR", "source": "Oklahoma Corporation Commission"}
{"api_number": "3501722445", "well_name": "CROOKHAM", "latitude": 35.460898, "longitude": -97.923769, "state": "Oklahoma", "county": "CANADIAN", "operator_name": "CIMARRON ENERGY LLC", "well_type": "GAS", "well_status": "OR", "source": "Oklahoma Corporation Commission"}
{"api_number": "3501722512", "well_name": "WITTROCK", "latitude": 35.683494, "longitude": -97.81525, "state": "Oklahoma", "county": "CANADIAN", "operator_name": "RAW CRUDE OIL & GAS, L.L.C.", "well_type": "OIL", "well_status": "OR", "source": "Oklahoma Corporation Commission"}
{"api_number": "3501722652", "well_name": "BURGE", "latitude": 35.468151, "longitude": -97.93259, "state": "Oklahoma", "county": "CANADIAN", "operator_name": "CIMARRON ENERGY LLC", "well_type": "GAS", "well_status": "OR", "source": "Oklahoma Corporation Commission"}
{"api_number": "3501722713", "well_name": "CAROLYN", "latitude": 35.68984, "longitude": -97.80747, "state": "Oklahoma", "county": "CANADIAN", "operator_name": "RAW CRUDE OIL & GAS, L.L.C.", "well_type": "OIL", "well_status": "OR", "source": "Oklahoma Corporation Commission"}
{"api_number": "3501722757", "well_name": "FRAN", "latitude": 35.71253, "longitude": -97.833, "state": "Oklahoma", "county": "CANADIAN", "operator_name": "RAW CRUDE OIL & GAS, L.L.C.", "well_type": "GAS", "well_status": "OR", "source": "Oklahoma Corporation Commission"}
{"api_number": "3501722769", "well_name": "WEISBROD", "latitude": 35.397184, "longitude": -97.85281, "state": "Oklahoma", "county": "CANADIAN", "operator_name": "RAW CRUDE OIL & GAS, L.L.C.", "well_type": "GAS", "well_status": "OR", "source": "Oklahoma Corporation Commission"}
{"api_number": "3501722780", "well_name": "DONNA", "latitude": 35.687242, "longitude": -97.847849, "state": "Oklahoma", "county": "CANADIAN", "operator_name": "RAW CRUDE OIL & GAS, L.L.C.", "well_type": "OIL", "well_status": "OR", "source": "Oklahoma Corporation Commission"}
{"api_number": "3501722912", "well_name": "WILSHIRE", "latitude": 35.551991, "longitude": -97.719483, "state": "Oklahoma", "county": "CANADIAN", "operator_name": "RAW CRUDE OIL & GAS, L.L.C.", "well_type": "OIL", "well_status": "OR", "source": "Oklahoma Corporation Commission"}
{"api_number": "3501723404", "well_name": "VON TUNGELN GAS UNIT", "latitude": 35.574424, "longitude": -98.18477, "state": "Oklahoma", "county": "CANADIAN", "operator_name": "RAW CRUDE OIL & GAS, L.L.C.", "well_type": "GAS", "well_status": "OR", "source": "Oklahoma Corporation Commission"}
{"api_number": "3501724006", "well_name": "MARCIA", "latitude": 35.52195507, "longitude": -98.00981692, "state": "Oklahoma", "county": "CANADIAN", "operator_name": "RAW CRUDE OIL & GAS, L.L.C.", "well_type": "GAS", "well_status": "OR", "source": "Oklahoma Corporation Commission"}
{"api_number": "3501724009", "well_name": "GRIFFIN", "latitude": 35.641899, "longitude": -98.214965, "state": "Oklahoma", "county": "CANADIAN", "operator_name": "JUBILEE EXPLORATION LLC", "well_type": "OIL", "well_status": "OR", "source": "Oklahoma Corporation Commission"}
{"api_number": "3501724027", "well_name": "SURREY", "latitude": 35.597816, "longitude": -97.724761, "state": "Oklahoma", "county": "CANADIAN", "operator_name": "RAW CRUDE OIL & GAS, L.L.C.", "well_type": "OIL", "well_status": "OR", "source": "Oklahoma Corporation Commission"}
{"api_number": "3501724221", "well_name": "STATE", "latitude": 35.601725, "longitude": -97.743694, "state": "Oklahoma", "county": "CANADIAN", "operator_name": "RAW CRUDE OIL & GAS, L.L.C.", "well_type": "OIL", "well_status": "OR", "source": "Oklahoma Corporation Commission"}
{"api_number": "3501724222", "well_name": "STATE", "latitude": 35.60177778, "longitude": -97.74380556, "state": "Oklahoma", "county": "CANADIAN", "operator_name": "RAW CRUDE OIL & GAS, L.L.C.", "well_type": "OIL", "well_status": "OR", "source": "Oklahoma Corporation Commission"}
{"api_number": "3501900144", "well_name": "MORRIS-LUSTER", "latitude": 34.4802819, "longitude": -97.4211014, "state": "Oklahoma", "county": "CARTER", "operator_name": "WALLACE DAN", "well_type": "NT", "well_status": "OR", "source": "Oklahoma Corporation Commission"}
{"api_number": "3501900148", "well_name": "FEE", "latitude": 34.2879783, "longitude": -97.4691023, "state": "Oklahoma", "county": "CARTER", "operator_name": "TAYLOR CHARLES D", "well_type": "NT", "well_status": "OR", "source": "Oklahoma Corporation Commission"}
{"api_number": "3501900171", "well_name": "HOLLINGSWORTH", "latitude": 34.0954443, "longitude": -97.1767966, "state": "Oklahoma", "county": "CARTER", "operator_name": "K & D PLUGGING & EQUIPMENT INC", "well_type": "DRY", "well_status": "OR", "source": "Oklahoma Corporation Commission"}
{"api_number": "3501900281", "well_name": "DUKE", "latitude": 34.1516892, "longitude": -97.2966639, "state": "Oklahoma", "county": "CARTER", "operator_name": "HOLDEN ENERGY CORPORATION", "well_type": "NT", "well_status": "OR", "source": "Oklahoma Corporation Commission"}
{"api_number": "3501900398", "well_name": "WOODRUFF", "latitude": 34.2479435, "longitude": -97.5324265, "state": "Oklahoma", "county": "CARTER", "operator_name": "MAGNOLIA PETROLEUM LTD", "well_type": "NT", "well_status": "OR", "source": "Oklahoma Corporation Commission"}
{"api_number": "3501900401", "well_name": "W W WOODWORTH", "latitude": 34.2479433, "longitude": -97.5346102, "state": "Oklahoma", "county": "CARTER", "operator_name": "MAGNOLIA PETROLEUM LTD", "well_type": "DRY", "well_status": "OR", "source": "Oklahoma Corporation Commission"}
{"api_number": "3501900478", "well_name": "CHASE", "latitude": 34.284251, "longitude": -97.512774, "state": "Oklahoma", "county": "CARTER", "operator_name": "MAGNOLIA PETROLEUM LTD", "well_type": "DRY", "well_status": "OR", "source": "Oklahoma Corporation Commission"}
{"api_number": "3501900488", "well_name": "WOODWORTH", "latitude": 34.2461301, "longitude": -97.5302428, "state": "Oklahoma", "county": "CARTER", "operator_name": "MAGNOLIA PETROLEUM LTD", "well_type": "NT", "well_status": "OR", "source": "Oklahoma Corporation Commission"}
{"api_number": "3501900511", "well_name": "SOL KIMBRILL", "latitude": 34.3750526, "longitude": -97.4472714, "state": "Oklahoma", "county": "CARTER", "operator_name": "MAGNOLIA PETROLEUM LTD", "well_type": "NT", "well_status": "OR", "source": "Oklahoma Corporation Commission"}
{"api_number": "3501900522", "well_name": "C RICHARD", "latitude": 34.2589637, "longitude": -97.4603633, "state": "Oklahoma", "county": "CARTER", "operator_name": "MAGNOLIA PETROLEUM LTD", "well_type": "NT", "well_status": "OR", "source": "Oklahoma Corporation Commission"}
{"api_number": "3501900538", "well_name": "FEE", "latitude": 34.210079, "longitude": -97.4079522, "state": "Oklahoma", "county": "CARTER", "operator_name": "W-N ENERGY CORP", "well_type": "NT", "well_status": "OR", "source": "Oklahoma Corporation Commission"}
{"api_number": "3501900584", "well_name": "DAUGHERTY", "latitude": 34.2046148, "longitude": -97.4276046, "state": "Oklahoma", "county": "CARTER", "operator_name": "MAPCO PRODUCTION CO", "well_type": "NT", "well_status": "OR", "source": "Oklahoma Corporation Commission"}
{"api_number": "3501900651", "well_name": "FEE", "latitude": 34.2136822, "longitude": -97.4232394, "state": "Oklahoma", "county": "CARTER", "operator_name": "W-N ENERGY CORP", "well_type": "NT", "well_status": "OR", "source": "Oklahoma Corporation Commission"}
{"api_number": "3501900696", "well_name": "ETTA CUNIE", "latitude": 34.1045317, "longitude": -97.2116671, "state": "Oklahoma", "county": "CARTER", "operator_name": "W-N ENERGY CORP", "well_type": "DRY", "well_status": "OR", "source": "Oklahoma Corporation Commission"}
{"api_number": "3501900834", "well_name": "CARNISH", "latitude": 34.2823578, "longitude": -97.5498982, "state": "Oklahoma", "county": "CARTER", "operator_name": "MAGNOLIA PETROLEUM LTD", "well_type": "NT", "well_status": "OR", "source": "Oklahoma Corporation Commission"}
{"api_number": "3501901071", "well_name": "MOORE", "latitude": 34.1829465, "longitude": -97.3446174, "state": "Oklahoma", "county": "CARTER", "operator_name": "SOUTHERN STATES ENERGY INC", "well_type": "NT", "well_status": "OR", "source": "Oklahoma Corporation Commission"}
{"api_number": "3501902001", "well_name": "HARMAN", "latitude": 34.481417, "longitude": -97.422345, "state": "Oklahoma", "county": "CARTER", "operator_name": "OTC/OCC NOT ASSIGNED", "well_type": "NT", "well_status": "OR", "source": "Oklahoma Corporation Commission"}
{"api_number": "3501902192", "well_name": "SPARKS", "latitude": 34.458376, "longitude": -97.441066, "state": "Oklahoma", "county": "CARTER", "operator_name": "RAW CRUDE OIL & GAS, L.L.C.", "well_type": "OIL", "well_status": "OR", "source": "Oklahoma Corporation Commission"}
{"api_number": "3501902193", "well_name": "SPARKS", "latitude": 34.458287, "longitude": -97.440371, "state": "Oklahoma", "county": "CARTER", "operator_name": "RAW CRUDE OIL & GAS, L.L.C.", "well_type": "OIL", "well_status": "OR", "source": "Oklahoma Corporation Commission"}
{"api_number": "3501902201", "well_name": "SHORT ETAL", "latitude": 34.4639113, "longitude": -97.4538488, "state": "Oklahoma", "county": "CARTER", "operator_name": "OTC/OCC NOT ASSIGNED", "well_type": "NT", "well_status": "OR", "source": "Oklahoma Corporation Commission"}
{"api_number": "3501902247", "well_name": "L HARMON", "latitude": 34.4512674, "longitude": -97.4145288, "state": "Oklahoma", "county": "CARTER", "operator_name": "BROWN JOE OIL OPERATING CO", "well_type": "NT", "well_status": "OR", "source": "Oklahoma Corporation Commission"}
{"api_number": "3501902251", "well_name": "HARMON", "latitude": 34.4408397, "longitude": -97.4172628, "state": "Oklahoma", "county": "CARTER", "operator_name": "WILLIAMS EXPLORATION COMPANY", "well_type": "OIL", "well_status": "OR", "source": "Oklahoma Corporation Commission"}
{"api_number": "3501902258", "well_name": "MAJORS", "latitude": 34.435853, "longitude": -97.4156214, "state": "Oklahoma", "county": "CARTER", "operator_name": "WILLIAMS EXPLORATION COMPANY", "well_type": "NT", "well_status": "OR", "source": "Oklahoma Corporation Commission"}
{"api_number": "3501902548", "well_name": "RIDDLE", "latitude": 34.5020441, "longitude": -97.4079635, "state": "Oklahoma", "county": "CARTER", "operator_name": "ROCKET OIL COMPANY", "well_type": "NT", "well_status": "OR", "source": "Oklahoma Corporation Commission"}
{"api_number": "3501902936", "well_name": "GRAY /A/", "latitude": 34.480467, "longitude": -97.517513, "state": "Oklahoma", "county": "CARTER", "operator_name": "OTC/OCC NOT ASSIGNED", "well_type": "OIL", "well_status": "OR", "source": "Oklahoma Corporation Commission"}
{"api_number": "3501902967", "well_name": "V BRIDENTHAL", "latitude": 34.4891698, "longitude": -97.5193511, "state": "Oklahoma", "county": "CARTER", "operator_name": "ALLIED MATERIALS CORP", "well_type": "OIL", "well_status": "OR", "source": "Oklahoma Corporation Commission"}
{"api_number": "3501903397", "well_name": "MARTIN", "latitude": 34.455243, "longitude": -97.493299, "state": "Oklahoma", "county": "CARTER", "operator_name": "OTC/OCC NOT ASSIGNED", "well_type": "OIL", "well_status": "OR", "source": "Oklahoma Corporation Commission"}
{"api_number": "3501903469", "well_name": "GORMAN", "latitude": 34.4457484, "longitude": -97.4625593, "state": "Oklahoma", "county": "CARTER", "operator_name": "SAMEDAN OIL CORPORATION", "well_type": "NT", "well_status": "OR", "source": "Oklahoma Corporation Commission"}
{"api_number": "3501903833", "well_name": "BYRD", "latitude": 34.49615, "longitude": -97.4172715, "state": "Oklahoma", "county": "CARTER", "operator_name": "MIDDLETON L & C K DAVIS", "well_type": "NT", "well_status": "OR", "source": "Oklahoma Corporation Commission"}
{"api_number": "3501903908", "well_name": "WILLIAMS", "latitude": 34.407946, "longitude": -97.425308, "state": "Oklahoma", "county": "CARTER", "operator_name": "OTC/OCC NOT ASSIGNED", "well_type": "NT", "well_status": "OR", "source": "Oklahoma Corporation Commission"}
{"api_number": "3501903992", "well_name": "KAUFMAN", "latitude": 34.391797, "longitude": -97.442881, "state": "Oklahoma", "county": "CARTER", "operator_name": "HEADINGTON ENERGY CORPORATION", "well_type": "OIL", "well_status": "OR", "source": "Oklahoma Corporation Commission"}
{"api_number": "3501903998", "well_name": "FITZGERALD", "latitude": 34.4045475, "longitude": -97.422695, "state": "Oklahoma", "county": "CARTER", "operator_name": "BULLARD DON W", "well_type": "OIL", "well_status": "OR", "source": "Oklahoma Corporation Commission"}
{"api_number": "3501904048", "well_name": "PIERCE /B/", "latitude": 34.3913997, "longitude": -97.4341793, "state": "Oklahoma", "county": "CARTER", "operator_name": "SHELL OIL COMPANY", "well_type": "OIL", "well_status": "OR", "source": "Oklahoma Corporation Commission"}
{"api_number": "3501904077", "well_name": "DAVIS", "latitude": 34.4009436, "longitude": -97.4183501, "state": "Oklahoma", "county": "CARTER", "operator_name": "HEADINGTON ENERGY CORPORATION", "well_type": "OIL", "well_status": "OR", "source": "Oklahoma Corporation Commission"}
{"api_number": "3501904088", "well_name": "HEFFNER", "latitude": 34.393014, "longitude": -97.407961, "state": "Oklahoma", "county": "CARTER", "operator_name": "OTC/OCC NOT ASSIGNED", "well_type": "NT", "well_status": "OR", "source": "Oklahoma Corporation Commission"}
{"api_number": "3501904264", "well_name": "J C BROOKS", "latitude": 34.378751, "longitude": -97.429861, "state": "Oklahoma", "county": "CARTER", "operator_name": "OTC/OCC NOT ASSIGNED", "well_type": "OIL", "well_status": "OR", "source": "Oklahoma Corporation Commission"}
{"api_number": "3501904359", "well_name": "ELIZABETH COX", "latitude": 34.3719494, "longitude": -97.4030622, "state": "Oklahoma", "county": "CARTER", "operator_name": "SULLIVAN JESSE G", "well_type": "NT", "well_status": "OR", "source": "Oklahoma Corporation Commission"}
{"api_number": "3501904377", "well_name": "WOLF", "latitude": 34.362503, "longitude": -97.390515, "state": "Oklahoma", "county": "CARTER", "operator_name": "OTC/OCC NOT ASSIGNED", "well_type": "NT", "well_status": "OR", "source": "Oklahoma Corporation Commission"}
{"api_number": "3501904500", "well_name": "FOGLE", "latitude": 34.3520018, "longitude": -97.4008731, "state": "Oklahoma", "county": "CARTER", "operator_name": "OTC/OCC NOT ASSIGNED", "well_type": "OIL", "well_status": "OR", "source": "Oklahoma Corporation Commission"}
{"api_number": "3501904507", "well_name": "FOGLE", "latitude": 34.348417, "longitude": -97.396286, "state": "Oklahoma", "county": "CARTER", "operator_name": "RAW CRUDE OIL & GAS, L.L.C.", "well_type": "OIL", "well_status": "OR", "source": "Oklahoma Corporation Commission"}
{"api_number": "3501905060", "well_name": "HARLEY", "latitude": 34.3657758, "longitude": -97.556464, "state": "Oklahoma", "county": "CARTER", "operator_name": "KIRKPATRICK RONALD B", "well_type": "OIL", "well_status": "OR", "source": "Oklahoma Corporation Commission"}
{"api_number": "3501905083", "well_name": "A N HARLEY JR", "latitude": 34.3644159, "longitude": -97.5537306, "state": "Oklahoma", "county": "CARTER", "operator_name": "MILBURN ROBERT G", "well_type": "OIL", "well_status": "OR", "source": "Oklahoma Corporation Commission"}
{"api_number": "3501905084", "well_name": "A N HARLEY JR", "latitude": 34.3635092, "longitude": -97.5537306, "state": "Oklahoma", "county": "CARTER", "operator_name": "WHZ OIL & GAS LLC", "well_type": "OIL", "well_status": "OR", "source": "Oklahoma Corporation Commission"}
{"api_number": "3501905106", "well_name": "ALICE BRISTOW", "latitude": 34.3676307, "longitude": -97.5346206, "state": "Oklahoma", "county": "CARTER", "operator_name": "MAGNOLIA PETROLEUM LTD", "well_type": "NT", "well_status": "OR", "source": "Oklahoma Corporation Commission"}
{"api_number": "3501905228", "well_name": "MASSAD", "latitude": 34.373306, "longitude": -97.483157, "state": "Oklahoma", "county": "CARTER", "operator_name": "GALIN OIL COMPANY", "well_type": "DRY", "well_status": "OR", "source": "Oklahoma Corporation Commission"}
{"api_number": "3501905235", "well_name": "C D WILLIAMS", "latitude": 34.371366, "longitude": -97.4822111, "state": "Oklahoma", "county": "CARTER", "operator_name": "DUNCAN W T", "well_type": "NT", "well_status": "OR", "source": "Oklahoma Corporation Commission"}
{"api_number": "3501905246", "well_name": "RUTH WILLIAMS", "latitude": 34.3713658, "longitude": -97.4843979, "state": "Oklahoma", "county": "CARTER", "operator_name": "H & H OIL COMPANY", "well_type": "OIL", "well_status": "OR", "source": "Oklahoma Corporation Commission"}
{"api_number": "3501905264", "well_name": "GRAHAM DEESE UNIT (A D DAVIS 1)", "latitude": 34.3659249, "longitude": -97.490958, "state": "Oklahoma", "county": "CARTER", "operator_name": "MAGNOLIA PETROLEUM LTD", "well_type": "OIL", "well_status": "OR", "source": "Oklahoma Corporation Commission"}
{"api_number": "3501905618", "well_name": "DAVIS /D/", "latitude": 34.3549753, "longitude": -97.5149632, "state": "Oklahoma", "county": "CARTER", "operator_name": "OXY USA INC", "well_type": "NT", "well_status": "OR", "source": "Oklahoma Corporation Commission"}
{"api_number": "3501905636", "well_name": "SYCAMORE UNIT INDIAN (BROOKS D-1)", "latitude": 34.3386906, "longitude": -97.4931204, "state": "Oklahoma", "county": "CARTER", "operator_name": "NORTH JOHN RINGLING", "well_type": "OIL", "well_status": "OR", "source": "Oklahoma Corporation Commission"}
{"api_number": "3501905695", "well_name": "FORT", "latitude": 34.3351281, "longitude": -97.4669246, "state": "Oklahoma", "county": "CARTER", "operator_name": "BLACKERBY MABEL", "well_type": "NT", "well_status": "OR", "source": "Oklahoma Corporation Commission"}
{"api_number": "3501905768", "well_name": "HICKS", "latitude": 34.3276939, "longitude": -97.549901, "state": "Oklahoma", "county": "CARTER", "operator_name": "SAMEDAN OIL CORPORATION", "well_type": "NT", "well_status": "OR", "source": "Oklahoma Corporation Commission"}
{"api_number": "3501905825", "well_name": "BONNER", "latitude": 34.307686, "longitude": -97.427124, "state": "Oklahoma", "county": "CARTER", "operator_name": "OTC/OCC NOT ASSIGNED", "well_type": "OIL", "well_status": "OR", "source": "Oklahoma Corporation Commission"}
{"api_number": "3501905826", "well_name": "BONNER", "latitude": 34.307794, "longitude": -97.429306, "state": "Oklahoma", "county": "CARTER", "operator_name": "OTC/OCC NOT ASSIGNED", "well_type": "OIL", "well_status": "OR", "source": "Oklahoma Corporation Commission"}
{"api_number": "3501905840", "well_name": "S.G.D.S.U.(DAISY MOYER #3)", "latitude": 34.309986, "longitude": -97.43436, "state": "Oklahoma", "county": "CARTER", "operator_name": "OTC/OCC NOT ASSIGNED", "well_type": "TM", "well_status": "OR", "source": "Oklahoma Corporation Commission"}
{"api_number": "3501905868", "well_name": "S.G.D.S.U.(HENDERSON)", "latitude": 34.299057, "longitude": -97.41466, "state": "Oklahoma", "county": "CARTER", "operator_name": "OTC/OCC NOT ASSIGNED", "well_type": "OIL", "well_status": "OR", "source": "Oklahoma Corporation Commission"}
{"api_number": "3501905924", "well_name": "BONNER-/B/", "latitude": 34.3029683, "longitude": -97.4445338, "state": "Oklahoma", "county": "CARTER", "operator_name": "OTC/OCC NOT ASSIGNED", "well_type": "NT", "well_status": "OR", "source": "Oklahoma Corporation Commission"}
{"api_number": "3501905962", "well_name": "REVELLE /B/", "latitude": 34.2880335, "longitude": -97.4232403, "state": "Oklahoma", "county": "CARTER", "operator_name": "SAMEDAN OIL CORPORATION", "well_type": "NT", "well_status": "OR", "source": "Oklahoma Corporation Commission"}
{"api_number": "3501906124", "well_name": "CARR", "latitude": 34.256105, "longitude": -97.391705, "state": "Oklahoma", "county": "CARTER", "operator_name": "OTC/OCC NOT ASSIGNED", "well_type": "NT", "well_status": "OR", "source": "Oklahoma Corporation Commission"}
{"api_number": "3501906126", "well_name": "CARRS", "latitude": 34.252716, "longitude": -97.39594, "state": "Oklahoma", "county": "CARTER", "operator_name": "OTC/OCC NOT ASSIGNED", "well_type": "OIL", "well_status": "OR", "source": "Oklahoma Corporation Commission"}
{"api_number": "3501906147", "well_name": "AMBERG", "latitude": 34.2550008, "longitude": -97.3844787, "state": "Oklahoma", "county": "CARTER", "operator_name": "LINCOLN ROCK CORPORATION", "well_type": "OIL", "well_status": "OR", "source": "Oklahoma Corporation Commission"}
{"api_number": "3501906250", "well_name": "WOODWORTH", "latitude": 34.2479435, "longitude": -97.5302428, "state": "Oklahoma", "county": "CARTER", "operator_name": "MAGNOLIA PETROLEUM LTD", "well_type": "OIL", "well_status": "OR", "source": "Oklahoma Corporation Commission"}
{"api_number": "3501906274", "well_name": "STEWART & HAWK", "latitude": 34.2466211, "longitude": -97.5253293, "state": "Oklahoma", "county": "CARTER", "operator_name": "MCGRAW OIL COMPANY", "well_type": "NT", "well_status": "OR", "source": "Oklahoma Corporation Commission"}
{"api_number": "3501906277", "well_name": "STEWART & HAWK", "latitude": 34.2484347, "longitude": -97.5242374, "state": "Oklahoma", "county": "CARTER", "operator_name": "MCGRAW OIL COMPANY", "well_type": "NT", "well_status": "OR", "source": "Oklahoma Corporation Commission"}
{"api_number": "3501906293", "well_name": "WALTER NEUSTADT", "latitude": 34.261171, "longitude": -97.543702, "state": "Oklahoma", "county": "CARTER", "operator_name": "OTC/OCC NOT ASSIGNED", "well_type": "OIL", "well_status": "OR", "source": "Oklahoma Corporation Commission"}
{"api_number": "3501906294", "well_name": "WALTER NEUSTADT", "latitude": 34.262841, "longitude": -97.541921, "state": "Oklahoma", "county": "CARTER", "operator_name": "OTC/OCC NOT ASSIGNED", "well_type": "OIL", "well_status": "OR", "source": "Oklahoma Corporation Commission"}
{"api_number": "3501906300", "well_name": "NEUSTADT", "latitude": 34.262848, "longitude": -97.545886, "state": "Oklahoma", "county": "CARTER", "operator_name": "OTC/OCC NOT ASSIGNED", "well_type": "OIL", "well_status": "OR", "source": "Oklahoma Corporation Commission"}
{"api_number": "3501906366", "well_name": "WALKER-VOORHEES", "latitude": 34.2450269, "longitude": -97.3839304, "state": "Oklahoma", "county": "CARTER", "operator_name": "SLAWSON DONALD L", "well_type": "NT", "well_status": "OR", "source": "Oklahoma Corporation Commission"}
{"api_number": "3501906457", "well_name": "WATKINS", "latitude": 34.2273272, "longitude": -97.4003063, "state": "Oklahoma", "county": "CARTER", "operator_name": "SIMPSON & SIMPSON EXPL INC", "well_type": "NT", "well_status": "OR", "source": "Oklahoma Corporation Commission"}
{"api_number": "3501906474", "well_name": "REXROAT /E/", "latitude": 34.2209804, "longitude": -97.3970318, "state": "Oklahoma", "county": "CARTER", "operator_name": "MIDSTATES OIL COMPANY", "well_type": "DRY", "well_status": "OR", "source": "Oklahoma Corporation Commission"}
{"api_number": "3501906476", "well_name": "PHOEBE REXROAT-/E/", "latitude": 34.2209804, "longitude": -97.3970318, "state": "Oklahoma", "county": "CARTER", "operator_name": "TENNECO OIL COMPANY", "well_type": "DRY", "well_status": "OR", "source": "Oklahoma Corporation Commission"}
{"api_number": "3501906570", "well_name": "DARBY", "latitude": 34.203266, "longitude": -97.433627, "state": "Oklahoma", "county": "CARTER", "operator_name": "OTC/OCC NOT ASSIGNED", "well_type": "NT", "well_status": "OR", "source": "Oklahoma Corporation Commission"}
{"api_number": "3501906638", "well_name": "W A WARD", "latitude": 34.1977883, "longitude": -97.4445279, "state": "Oklahoma", "county": "CARTER", "operator_name": "TRIPLEDEE DRILLING CO INC", "well_type": "NT", "well_status": "OR", "source": "Oklahoma Corporation Commission"}
{"api_number": "3501906641", "well_name": "HESTER", "latitude": 34.19531, "longitude": -97.449406, "state": "Oklahoma", "county": "CARTER", "operator_name": "OKLAHOMA PRIME ENERGY LLC", "well_type": "OIL", "well_status": "OR", "source": "Oklahoma Corporation Commission"}
{"api_number": "3501906766", "well_name": "HARREL", "latitude": 34.194194, "longitude": -97.434706, "state": "Oklahoma", "county": "CARTER", "operator_name": "OTC/OCC NOT ASSIGNED", "well_type": "OIL", "well_status": "OR", "source": "Oklahoma Corporation Commission"}
{"api_number": "3501906821", "well_name": "J H DILLARD /A/", "latitude": 34.192347, "longitude": -97.401604, "state": "Oklahoma", "county": "CARTER", "operator_name": "WOLVERINE PETROLEUM CORP", "well_type": "NT", "well_status": "OR", "source": "Oklahoma Corporation Commission"}
{"api_number": "3501906892", "well_name": "WARD", "latitude": 34.185036, "longitude": -97.420448, "state": "Oklahoma", "county": "CARTER", "operator_name": "OTC/OCC NOT ASSIGNED", "well_type": "NT", "well_status": "OR", "source": "Oklahoma Corporation Commission"}
{"api_number": "3501907119", "well_name": "HEALDTON UNIT", "latitude": 34.2394374, "longitude": -97.4871118, "state": "Oklahoma", "county": "CARTER", "operator_name": "PHILLIPS A.L. GATHERING SYSTEM", "well_type": "DRY", "well_status": "OR", "source": "Oklahoma Corporation Commission"}
{"api_number": "3501907120", "well_name": "FOYIL", "latitude": 34.2412506, "longitude": -97.4892952, "state": "Oklahoma", "county": "CARTER", "operator_name": "TOMLINSON ENERGY INC", "well_type": "DRY", "well_status": "OR", "source": "Oklahoma Corporation Commission"}
{"api_number": "3501907130", "well_name": "WIRT-FRANKLIN", "latitude": 34.2443914, "longitude": -97.4953024, "state": "Oklahoma", "county": "CARTER", "operator_name": "SHELL OIL COMPANY", "well_type": "NT", "well_status": "OR", "source": "Oklahoma Corporation Commission"}
{"api_number": "3501907198", "well_name": "STEWART-HAWKS", "latitude": 34.2443545, "longitude": -97.523689, "state": "Oklahoma", "county": "CARTER", "operator_name": "MCGRAW OIL COMPANY", "well_type": "NT", "well_status": "OR", "source": "Oklahoma Corporation Commission"}
{"api_number": "3501907221", "well_name": "ROY JOHNSON", "latitude": 34.2334742, "longitude": -97.5193224, "state": "Oklahoma", "county": "CARTER", "operator_name": "SHELL OIL COMPANY", "well_type": "OIL", "well_status": "OR", "source": "Oklahoma Corporation Commission"}
{"api_number": "3501907246", "well_name": "C R SMITH", "latitude": 34.2429556, "longitude": -97.5427963, "state": "Oklahoma", "county": "CARTER", "operator_name": "SHELL OIL COMPANY", "well_type": "OIL", "well_status": "OR", "source": "Oklahoma Corporation Commission"}
{"api_number": "3501907284", "well_name": "MCCLURE", "latitude": 34.2316219, "longitude": -97.5389755, "state": "Oklahoma", "county": "CARTER", "operator_name": "SHELL OIL COMPANY", "well_type": "NT", "well_status": "OR", "source": "Oklahoma Corporation Commission"}
{"api_number": "3501907286", "well_name": "WESLEY FEE", "latitude": 34.2334356, "longitude": -97.5367922, "state": "Oklahoma", "county": "CARTER", "operator_name": "SHELL OIL COMPANY", "well_type": "NT", "well_status": "OR", "source": "Oklahoma Corporation Commission"}
{"api_number": "3501907360", "well_name": "PRUITT \"BA\"", "latitude": 34.2754326, "longitude": -97.1677467, "state": "Oklahoma", "county": "CARTER", "operator_name": "RB OPERATING COMPANY", "well_type": "OIL", "well_status": "OR", "source": "Oklahoma Corporation Commission"}
{"api_number": "3501907391", "well_name": "FRASER", "latitude": 34.2700035, "longitude": -97.1830311, "state": "Oklahoma", "county": "CARTER", "operator_name": "OTC/OCC NOT ASSIGNED", "well_type": "NT", "well_status": "OR", "source": "Oklahoma Corporation Commission"}
{"api_number": "3501907566", "well_name": "DOLMAN", "latitude": 34.3532625, "longitude": -97.4669263, "state": "Oklahoma", "county": "CARTER", "operator_name": "ATLANTIC OIL CORPORATION", "well_type": "OIL", "well_status": "OR", "source": "Oklahoma Corporation Commission"}
{"api_number": "3501907783", "well_name": "POLLACK J", "latitude": 34.4692923, "longitude": -97.4778417, "state": "Oklahoma", "county": "CARTER", "operator_name": "GIBSON H F ESTATE", "well_type": "OIL", "well_status": "OR", "source": "Oklahoma Corporation Commission"}
{"api_number": "3501907876", "well_name": "HARRIS", "latitude": 34.1008854, "longitude": -97.1724394, "state": "Oklahoma", "county": "CARTER", "operator_name": "D & D PIPE & EQUIPMENT INC", "well_type": "OIL", "well_status": "OR", "source": "Oklahoma Corporation Commission"}
{"api_number": "3501907881", "well_name": "SIMONS J(J4)", "latitude": 34.1026992, "longitude": -97.1680794, "state": "Oklahoma", "county": "CARTER", "operator_name": "GRANITE OIL & GAS INC", "well_type": "OIL", "well_status": "OR", "source": "Oklahoma Corporation Commission"}
{"api_number": "3501908955", "well_name": "EASON-HARRIS \"A\" (EASON 1)", "latitude": 34.411586, "longitude": -97.554822, "state": "Oklahoma", "county": "CARTER", "operator_name": "CROSS TIMBERS PRODUCTION CO", "well_type": "TM", "well_status": "OR", "source": "Oklahoma Corporation Commission"}
{"api_number": "3501909147", "well_name": "S.G.D.S.U.(MCGILL 1)", "latitude": 34.309976, "longitude": -97.425514, "state": "Oklahoma", "county": "CARTER", "operator_name": "OTC/OCC NOT ASSIGNED", "well_type": "TM", "well_status": "OR", "source": "Oklahoma Corporation Commission"}
{"api_number": "3501909383", "well_name": "HOLMAN", "latitude": 34.2126193, "longitude": -97.5225929, "state": "Oklahoma", "county": "CARTER", "operator_name": "TOMLINSON C W", "well_type": "NT", "well_status": "OR", "source": "Oklahoma Corporation Commission"}
{"api_number": "3501909384", "well_name": "HOLEMAN", "latitude": 34.2126193, "longitude": -97.5225929, "state": "Oklahoma", "county": "CARTER", "operator_name": "TOMLINSON C W", "well_type": "NT", "well_status": "OR", "source": "Oklahoma Corporation Commission"}
{"api_number": "3501909541", "well_name": "RINGLING", "latitude": 34.340888, "longitude": -97.491394, "state": "Oklahoma", "county": "CARTER", "operator_name": "OTC/OCC NOT ASSIGNED", "well_type": "OIL", "well_status": "OR", "source": "Oklahoma Corporation Commission"}
{"api_number": "3501909550", "well_name": "LESTER WESLEY", "latitude": 34.3427102, "longitude": -97.4869996, "state": "Oklahoma", "county": "CARTER", "operator_name": "OTC/OCC NOT ASSIGNED", "well_type": "OIL", "well_status": "OR", "source": "Oklahoma Corporation Commission"}
{"api_number": "3501909824", "well_name": "HARLEY A N", "latitude": 34.363963, "longitude": -97.55428, "state": "Oklahoma", "county": "CARTER", "operator_name": "WHZ OIL & GAS LLC", "well_type": "OIL", "well_status": "OR", "source": "Oklahoma Corporation Commission"}
{"api_number": "3501909870", "well_name": "JENNINGS", "latitude": 34.377171, "longitude": -97.504511, "state": "Oklahoma", "county": "CARTER", "operator_name": "OTC/OCC NOT ASSIGNED", "well_type": "OIL", "well_status": "OR", "source": "Oklahoma Corporation Commission"}
{"api_number": "3501909966", "well_name": "BROOKS", "latitude": 34.3605165, "longitude": -97.4603672, "state": "Oklahoma", "county": "CARTER", "operator_name": "RAIZEN OIL LLC", "well_type": "OIL", "well_status": "OR", "source": "Oklahoma Corporation Commission"}
{"api_number": "3501909975", "well_name": "JEFFERSON C", "latitude": 34.359044, "longitude": -97.469544, "state": "Oklahoma", "county": "CARTER", "operator_name": "OTC/OCC NOT ASSIGNED", "well_type": "OIL", "well_status": "OR", "source": "Oklahoma Corporation Commission"}
{"api_number": "3501910656", "well_name": "VOOCHEES", "latitude": 34.21894, "longitude": -97.408242, "state": "Oklahoma", "county": "CARTER", "operator_name": "OTC/OCC NOT ASSIGNED", "well_type": "NT", "well_status": "OR", "source": "Oklahoma Corporation Commission"}
{"api_number": "3501910697", "well_name": "WALKER MAY", "latitude": 34.2246066, "longitude": -97.4035807, "state": "Oklahoma", "county": "CARTER", "operator_name": "OTC/OCC NOT ASSIGNED", "well_type": "OIL", "well_status": "OR", "source": "Oklahoma Corporation Commission"}
{"api_number": "3501910890", "well_name": "CARTER JOE", "latitude": 34.471621, "longitude": -97.473755, "state": "Oklahoma", "county": "CARTER", "operator_name": "OTC/OCC NOT ASSIGNED", "well_type": "OIL", "well_status": "OR", "source": "Oklahoma Corporation Commission"}
{"api_number": "3501910985", "well_name": "MOYER", "latitude": 34.313521, "longitude": -97.432265, "state": "Oklahoma", "county": "CARTER", "operator_name": "OTC/OCC NOT ASSIGNED", "well_type": "OIL", "well_status": "OR", "source": "Oklahoma Corporation Commission"}
{"api_number": "3501910992", "well_name": "NICHOLAS", "latitude": 34.315309, "longitude": -97.425944, "state": "Oklahoma", "county": "CARTER", "operator_name": "OTC/OCC NOT ASSIGNED", "well_type": "OIL", "well_status": "OR", "source": "Oklahoma Corporation Commission"}
{"api_number": "3501911025", "well_name": "BARRETT", "latitude": 34.288144, "longitude": -97.434412, "state": "Oklahoma", "county": "CARTER", "operator_name": "OTC/OCC NOT ASSIGNED", "well_type": "OIL", "well_status": "OR", "source": "Oklahoma Corporation Commission"}
{"api_number": "3501911792", "well_name": "GILL", "latitude": 34.173441, "longitude": -97.370055, "state": "Oklahoma", "county": "CARTER", "operator_name": "OTC/OCC NOT ASSIGNED", "well_type": "OIL", "well_status": "OR", "source": "Oklahoma Corporation Commission"}
{"api_number": "3501912726", "well_name": "SMALLEY J A", "latitude": 34.228114, "longitude": -97.495329, "state": "Oklahoma", "county": "CARTER", "operator_name": "OTC/OCC NOT ASSIGNED", "well_type": "OIL", "well_status": "OR", "source": "Oklahoma Corporation Commission"}
{"api_number": "3501912841", "well_name": "SMITH", "latitude": 34.204221, "longitude": -97.458314, "state": "Oklahoma", "county": "CARTER", "operator_name": "OTC/OCC NOT ASSIGNED", "well_type": "DRY", "well_status": "OR", "source": "Oklahoma Corporation Commission"}
{"api_number": "3501913492", "well_name": "SARASOTA", "latitude": 34.200578, "longitude": -97.477714, "state": "Oklahoma", "county": "CARTER", "operator_name": "OTC/OCC NOT ASSIGNED", "well_type": "OIL", "well_status": "OR", "source": "Oklahoma Corporation Commission"}
{"api_number": "3501913518", "well_name": "SARASOTA", "latitude": 34.130412, "longitude": -97.456251, "state": "Oklahoma", "county": "CARTER", "operator_name": "OTC/OCC NOT ASSIGNED", "well_type": "OIL", "well_status": "OR", "source": "Oklahoma Corporation Commission"}
{"api_number": "3501913673", "well_name": "SMITH WM", "latitude": 34.362728, "longitude": -97.473846, "state": "Oklahoma", "county": "CARTER", "operator_name": "OTC/OCC NOT ASSIGNED", "well_type": "GAS", "well_status": "OR", "source": "Oklahoma Corporation Commission"}
{"api_number": "3501913798", "well_name": "MAMIE BRADY", "latitude": 34.413037, "longitude": -97.421616, "state": "Oklahoma", "county": "CARTER", "operator_name": "RAW CRUDE OIL & GAS, L.L.C.", "well_type": "OIL", "well_status": "OR", "source": "Oklahoma Corporation Commission"}
{"api_number": "3501913807", "well_name": "PALMER HICKS", "latitude": 34.336996, "longitude": -97.4363569, "state": "Oklahoma", "county": "CARTER", "operator_name": "OTC/OCC NOT ASSIGNED", "well_type": "OIL", "well_status": "OR", "source": "Oklahoma Corporation Commission"}
{"api_number": "3501913826", "well_name": "TATM DS MOINES", "latitude": 34.402964, "longitude": -97.417295, "state": "Oklahoma", "county": "CARTER", "operator_name": "OTC/OCC NOT ASSIGNED", "well_type": "NT", "well_status": "OR", "source": "Oklahoma Corporation Commission"}
{"api_number": "3501913848", "well_name": "BRADY", "latitude": 34.452051, "longitude": -97.449288, "state": "Oklahoma", "county": "CARTER", "operator_name": "OTC/OCC NOT ASSIGNED", "well_type": "NT", "well_status": "OR", "source": "Oklahoma Corporation Commission"}
{"api_number": "3501913950", "well_name": "SIMPSON P", "latitude": 34.360632, "longitude": -97.467166, "state": "Oklahoma", "county": "CARTER", "operator_name": "OTC/OCC NOT ASSIGNED", "well_type": "OIL", "well_status": "OR", "source": "Oklahoma Corporation Commission"}
{"api_number": "3501913961", "well_name": "JOHNSON W B", "latitude": 34.347909, "longitude": -97.526679, "state": "Oklahoma", "county": "CARTER", "operator_name": "OTC/OCC NOT ASSIGNED", "well_type": "GAS", "well_status": "OR", "source": "Oklahoma Corporation Commission"}
{"api_number": "3501913962", "well_name": "JOHNSON", "latitude": 34.347887, "longitude": -97.524925, "state": "Oklahoma", "county": "CARTER", "operator_name": "OTC/OCC NOT ASSIGNED", "well_type": "NT", "well_status": "OR", "source": "Oklahoma Corporation Commission"}
{"api_number": "3501913964", "well_name": "THOS MCCLURE", "latitude": 34.355316, "longitude": -97.511034, "state": "Oklahoma", "county": "CARTER", "operator_name": "OTC/OCC NOT ASSIGNED", "well_type": "GAS", "well_status": "OR", "source": "Oklahoma Corporation Commission"}
{"api_number": "3501913978", "well_name": "BROOKS", "latitude": 34.342706, "longitude": -97.491336, "state": "Oklahoma", "county": "CARTER", "operator_name": "OTC/OCC NOT ASSIGNED", "well_type": "NT", "well_status": "OR", "source": "Oklahoma Corporation Commission"}
{"api_number": "3501914179", "well_name": "DUKE", "latitude": 34.155527, "longitude": -97.32724, "state": "Oklahoma", "county": "CARTER", "operator_name": "OTC/OCC NOT ASSIGNED", "well_type": "OIL", "well_status": "OR", "source": "Oklahoma Corporation Commission"}
{"api_number": "3501919636", "well_name": "M. FARVE", "latitude": 34.10675, "longitude": -97.21638889, "state": "Oklahoma", "county": null, "operator_name": "ARROW OPERATING COMPANY INC", "well_type": "TM", "well_status": "OR", "source": "Oklahoma Corporation Commission"}
{"api_number": "3501919637", "well_name": "M. FARVE", "latitude": 34.10675, "longitude": -97.22002778, "state": "Oklahoma", "county": null, "operator_name": "ARROW OPERATING COMPANY INC", "well_type": "TM", "well_status": "OR", "source": "Oklahoma Corporation Commission"}
{"api_number": "3501920257", "well_name": "DAUGHERTY", "latitude": 34.2041611, "longitude": -97.4330611, "state": "Oklahoma", "county": "CARTER", "operator_name": "BRADLEY PRODUCING CORPORATION", "well_type": "TM", "well_status": "OR", "source": "Oklahoma Corporation Commission"}
{"api_number": "3501921377", "well_name": "A N HARLEY SR", "latitude": 34.363889, "longitude": -97.55444, "state": "Oklahoma", "county": "CARTER", "operator_name": "WHZ OIL & GAS LLC", "well_type": "OIL", "well_status": "OR", "source": "Oklahoma Corporation Commission"}
{"api_number": "3501921385", "well_name": "KNOX-PRICE", "latitude": 34.2649569, "longitude": -97.3910306, "state": "Oklahoma", "county": "CARTER", "operator_name": "CHATHAM JOHN", "well_type": "OIL", "well_status": "OR", "source": "Oklahoma Corporation Commission"}
{"api_number": "3501921736", "well_name": "OWENS", "latitude": 34.3616959, "longitude": -97.5515439, "state": "Oklahoma", "county": "CARTER", "operator_name": "SULLIVAN JESSE G", "well_type": "DRY", "well_status": "OR", "source": "Oklahoma Corporation Commission"}
{"api_number": "3501921789", "well_name": "SULLIVAN", "latitude": 34.087647, "longitude": -97.402569, "state": "Oklahoma", "county": "CARTER", "operator_name": "RAW CRUDE OIL & GAS, L.L.C.", "well_type": "OIL", "well_status": "OR", "source": "Oklahoma Corporation Commission"}
{"api_number": "3501921965", "well_name": "KENNECOTT COPPER", "latitude": 34.291073, "longitude": -97.442456, "state": "Oklahoma", "county": "CARTER", "operator_name": "OTC/OCC NOT ASSIGNED", "well_type": "GAS", "well_status": "OR", "source": "Oklahoma Corporation Commission"}
{"api_number": "3501921968", "well_name": "JM", "latitude": 34.281883, "longitude": -97.430532, "state": "Oklahoma", "county": "CARTER", "operator_name": "OTC/OCC NOT ASSIGNED", "well_type": "NT", "well_status": "OR", "source": "Oklahoma Corporation Commission"}
{"api_number": "3501922041", "well_name": "G C GRANT", "latitude": 34.348254, "longitude": -97.476431, "state": "Oklahoma", "county": "CARTER", "operator_name": "OTC/OCC NOT ASSIGNED", "well_type": "OIL", "well_status": "OR", "source": "Oklahoma Corporation Commission"}
{"api_number": "3501922259", "well_name": "NORTH", "latitude": 34.13337, "longitude": -97.451715, "state": "Oklahoma", "county": "CARTER", "operator_name": "OTC/OCC NOT ASSIGNED", "well_type": "NT", "well_status": "OR", "source": "Oklahoma Corporation Commission"}
{"api_number": "3501922353", "well_name": "BURL", "latitude": 34.4834056, "longitude": -97.4543987, "state": "Oklahoma", "county": "CARTER", "operator_name": "WISHBONE OIL & GAS", "well_type": "NT", "well_status": "OR", "source": "Oklahoma Corporation Commission"}
{"api_number": "3501922565", "well_name": "BRADY-ROSE", "latitude": 34.4240649, "longitude": -97.4210901, "state": "Oklahoma", "county": "CARTER", "operator_name": "EXTRACTOL COMPANY", "well_type": "NT", "well_status": "OR", "source": "Oklahoma Corporation Commission"}
{"api_number": "3501922681", "well_name": "WILLIAMS L B", "latitude": 34.4620981, "longitude": -97.4450904, "state": "Oklahoma", "county": "CARTER", "operator_name": "RAW CRUDE OIL & GAS, L.L.C.", "well_type": "OIL", "well_status": "OR", "source": "Oklahoma Corporation Commission"}
{"api_number": "3501923056", "well_name": "GRAHAM DEESE UNIT", "latitude": 34.365634, "longitude": -97.488777, "state": "Oklahoma", "county": "CARTER", "operator_name": "OTC/OCC NOT ASSIGNED", "well_type": "WSW", "well_status": "OR", "source": "Oklahoma Corporation Commission"}
{"api_number": "3501923070", "well_name": "E. GOODMAN", "latitude": 34.3574611, "longitude": -97.3790306, "state": "Oklahoma", "county": "CARTER", "operator_name": "SIKES OIL COMPANY INC", "well_type": "OIL", "well_status": "OR", "source": "Oklahoma Corporation Commission"}
{"api_number": "3501923191", "well_name": "COLINE D", "latitude": 34.294414, "longitude": -97.418482, "state": "Oklahoma", "county": "CARTER", "operator_name": "PIERCE PATSEY R THE ESTATE OF", "well_type": "DRY", "well_status": "OR", "source": "Oklahoma Corporation Commission"}
{"api_number": "3501923502", "well_name": "COX \"P\"", "latitude": 34.3683226, "longitude": -97.4030622, "state": "Oklahoma", "county": "CARTER", "operator_name": "COX OIL & GAS INC", "well_type": "OIL", "well_status": "OR", "source": "Oklahoma Corporation Commission"}
{"api_number": "3501924456", "well_name": "DYER", "latitude": 34.358462, "longitude": -97.554381, "state": "Oklahoma", "county": "CARTER", "operator_name": "RAW CRUDE OIL & GAS, L.L.C.", "well_type": "OIL", "well_status": "OR", "source": "Oklahoma Corporation Commission"}
{"api_number": "3501924770", "well_name": "HERNSTADT", "latitude": 34.3296876, "longitude": -97.4685621, "state": "Oklahoma", "county": "CARTER", "operator_name": "TYTAN OPERATING COMPANY LLC", "well_type": "OIL", "well_status": "OR", "source": "Oklahoma Corporation Commission"}
{"api_number": "3501930082", "well_name": "L.B.WILLIAMS", "latitude": 34.462521, "longitude": -97.445367, "state": "Oklahoma", "county": "CARTER", "operator_name": "RAW CRUDE OIL & GAS, L.L.C.", "well_type": "OIL", "well_status": "OR", "source": "Oklahoma Corporation Commission"}
{"api_number": "3501930170", "well_name": "HESTER", "latitude": 34.18783, "longitude": -97.44455, "state": "Oklahoma", "county": "CARTER", "operator_name": "OKLAHOMA PRIME ENERGY LLC", "well_type": "OIL", "well_status": "OR", "source": "Oklahoma Corporation Commission"}
{"api_number": "3501930285", "well_name": "CANTWALL", "latitude": 34.1243919, "longitude": -97.4121553, "state": "Oklahoma", "county": "CARTER", "operator_name": "DAVENPORT OIL CORPORATION", "well_type": "NT", "well_status": "OR", "source": "Oklahoma Corporation Commission"}
{"api_number": "3501930404", "well_name": "J L PRICE", "latitude": 34.1920252, "longitude": -97.3227848, "state": "Oklahoma", "county": "CARTER", "operator_name": "LINCOLN ROCK CORPORATION", "well_type": "NT", "well_status": "OR", "source": "Oklahoma Corporation Commission"}
{"api_number": "3501970213", "well_name": "S.G.D.S.U.", "latitude": 34.3331344, "longitude": -97.5477159, "state": "Oklahoma", "county": "CARTER", "operator_name": "MESA OPERATING LP", "well_type": "TM", "well_status": "OR", "source": "Oklahoma Corporation Commission"}
{"api_number": "3501976356", "well_name": "UNKNOWN", "latitude": 34.231057, "longitude": -97.440037, "state": "Oklahoma", "county": "CARTER", "operator_name": "OTC/OCC NOT ASSIGNED", "well_type": "NT", "well_status": "OR", "source": "Oklahoma Corporation Commission"}
{"api_number": "3502520118", "well_name": "GOWDY", "latitude": 36.56838, "longitude": -102.05239, "state": "Oklahoma", "county": "CIMARRON", "operator_name": "OIL FIELD PRODUCTION INC", "well_type": "GAS", "well_status": "OR", "source": "Oklahoma Corporation Commission"}
{"api_number": "3502520910", "well_name": "BILLIE JEAN", "latitude": 36.90839, "longitude": -102.17336, "state": "Oklahoma", "county": "CIMARRON", "operator_name": "RAW CRUDE OIL & GAS, L.L.C.", "well_type": "GAS", "well_status": "OR", "source": "Oklahoma Corporation Commission"}
{"api_number": "3502520921", "well_name": "SCHOOLFIELD", "latitude": 36.96406, "longitude": -102.12744, "state": "Oklahoma", "county": "CIMARRON", "operator_name": "OIL FIELD PRODUCTION INC", "well_type": "GAS", "well_status": "OR", "source": "Oklahoma Corporation Commission"}
{"api_number": "3502535085", "well_name": "BACON", "latitude": 36.91383, "longitude": -102.18258, "state": "Oklahoma", "county": "CIMARRON", "operator_name": "RAW CRUDE OIL & GAS, L.L.C.", "well_type": "GAS", "well_status": "OR", "source": "Oklahoma Corporation Commission"}
